[
    {
        "Id": 1056,
        "Title": "01 Burda AVM Adana",
        "Phone": "",
        "Address": "",
        "Logo": "https://images.endeksa.com/images/shopping-centers/logos/01-burda-avm-adana.jpg",
        "Photo": "https://images.endeksa.com/images/shopping-centers/photos/01-burda-avm-adana.jpg",
        "Lat": "36.9935465",
        "Lon": "35.3080349",
        "Country": "Türkiye",
        "City": "Adana",
        "County": "Seyhan",
        "District": "Ahmet Remzi Yüreğir",
        "CountryId": 1,
        "CityId": 1,
        "CountyId": 1104,
        "DistrictId": 1,
        "StoreCount": 76,
        "CategoryCount": 20,
        "ATMCount": 8
    },
    {
        "Id": 1057,
        "Title": "M1 Adana AVM /Shopping Mall",
        "Phone": "0322 271 01 18",
        "Address": "Yeni Mh Öğretmenler Bulv Seyhan Adana",
        "Logo": "https://images.endeksa.com/images/shopping-centers/logos/m1-adana-avm--shopping-mall.jpg",
        "Photo": "https://images.endeksa.com/images/shopping-centers/photos/m1-adana-avm--shopping-mall.jpg",
        "Lat": "37.01818",
        "Lon": "35.24375",
        "Country": "Türkiye",
        "City": "Adana",
        "County": "Seyhan",
        "District": "Yeni",
        "CountryId": 1,
        "CityId": 1,
        "CountyId": 1104,
        "DistrictId": 101,
        "StoreCount": 133,
        "CategoryCount": 22,
        "ATMCount": 12
    },
    {
        "Id": 1058,
        "Title": "Optimum Adana AVM /Shopping Mall",
        "Phone": "0322 333 33 00",
        "Address": "Hacı Sabancı Bulvarı Yüreğir/Adana",
        "Logo": "https://images.endeksa.com/images/shopping-centers/logos/optimum-adana-avm--shopping-mall.jpg",
        "Photo": "https://images.endeksa.com/images/shopping-centers/photos/optimum-adana-avm--shopping-mall.jpg",
        "Lat": "36.99097",
        "Lon": "35.34047",
        "Country": "Türkiye",
        "City": "Adana",
        "County": "Yüreğir",
        "District": "Sinanpaşa",
        "CountryId": 1,
        "CityId": 1,
        "CountyId": 1748,
        "DistrictId": 139,
        "StoreCount": 127,
        "CategoryCount": 22,
        "ATMCount": 13
    },
    {
        "Id": 1059,
        "Title": "Park Adana AVM /Shopping Mall",
        "Phone": "0322 333 20 00",
        "Address": "Sakarya Mh 55016.Sk SEYHAN ADANA",
        "Logo": "https://images.endeksa.com/images/shopping-centers/logos/park-adana-avm--shopping-mall.jpg",
        "Photo": "https://images.endeksa.com/images/shopping-centers/photos/park-adana-avm--shopping-mall.jpg",
        "Lat": "36.99559",
        "Lon": "35.30222",
        "Country": "Türkiye",
        "City": "Adana",
        "County": "Seyhan",
        "District": "Sakarya",
        "CountryId": 1,
        "CityId": 1,
        "CountyId": 1104,
        "DistrictId": 51,
        "StoreCount": 40,
        "CategoryCount": 17,
        "ATMCount": 0
    },
    {
        "Id": 1060,
        "Title": "Adıyaman Park AVM",
        "Phone": "0416 227 17 77",
        "Address": "YENİ SANAYİ MH 2819.SK MERKEZ ADIYAMAN ",
        "Logo": "https://images.endeksa.com/images/shopping-centers/logos/adıyaman-park-avm.jpg",
        "Photo": "https://images.endeksa.com/images/shopping-centers/photos/adıyaman-park-avm.jpg",
        "Lat": "37.75022",
        "Lon": "38.23875",
        "Country": "Türkiye",
        "City": "Adıyaman",
        "County": "Merkez",
        "District": "Yeni Sanayi",
        "CountryId": 1,
        "CityId": 2,
        "CountyId": 1105,
        "DistrictId": 439,
        "StoreCount": 58,
        "CategoryCount": 19,
        "ATMCount": 0
    },
    {
        "Id": 1061,
        "Title": "Afium AVM /Outlet",
        "Phone": "0272 252 57 00",
        "Address": "İzmir Karayolu 9. km Afyonkarahisar",
        "Logo": "https://images.endeksa.com/images/shopping-centers/logos/afium-avm--outlet.jpg",
        "Photo": "https://images.endeksa.com/images/shopping-centers/photos/afium-avm--outlet.jpg",
        "Lat": "38.79141",
        "Lon": "30.45749",
        "Country": "Türkiye",
        "City": "Afyonkarahisar",
        "County": "Merkez",
        "District": "Sadıkbey",
        "CountryId": 1,
        "CityId": 3,
        "CountyId": 1108,
        "DistrictId": 962092,
        "StoreCount": 65,
        "CategoryCount": 16,
        "ATMCount": 9
    },
    {
        "Id": 1062,
        "Title": "Park Afyon AVM",
        "Phone": "0272 222 03 03",
        "Address": "Fevzi Çakmak Bulv Merkez/Afyonkarahisar",
        "Logo": "https://images.endeksa.com/images/shopping-centers/logos/park-afyon-avm.jpg",
        "Photo": "https://images.endeksa.com/images/shopping-centers/photos/park-afyon-avm.jpg",
        "Lat": "38.75491",
        "Lon": "30.55518",
        "Country": "Türkiye",
        "City": "Afyonkarahisar",
        "County": "Merkez",
        "District": "Güvenevler",
        "CountryId": 1,
        "CityId": 3,
        "CountyId": 1108,
        "DistrictId": 624,
        "StoreCount": 88,
        "CategoryCount": 20,
        "ATMCount": 0
    },
    {
        "Id": 1063,
        "Title": "Doğubayazıt AVM",
        "Phone": "",
        "Address": "Çiftepınar Mahallesi, 04400 Doğubayazıt Ağrı",
        "Logo": "https://images.endeksa.com/images/shopping-centers/logos/doğubayazıt-avm.jpg",
        "Photo": "https://images.endeksa.com/images/shopping-centers/photos/doğubayazıt-avm.jpg",
        "Lat": "39.54367",
        "Lon": "44.08202",
        "Country": "Türkiye",
        "City": "Ağrı",
        "County": "Doğubayazıt",
        "District": "Çiftepınar",
        "CountryId": 1,
        "CityId": 4,
        "CountyId": 1287,
        "DistrictId": 1230,
        "StoreCount": 10,
        "CategoryCount": 6,
        "ATMCount": 0
    },
    {
        "Id": 1064,
        "Title": "Amasya Park AVM",
        "Phone": "0358 218 99 09",
        "Address": "Hacı ilyas mh m.kemal paşa cd Merkez/Amasya",
        "Logo": "https://images.endeksa.com/images/shopping-centers/logos/amasya-park-avm.jpg",
        "Photo": "https://images.endeksa.com/images/shopping-centers/photos/amasya-park-avm.jpg",
        "Lat": "40.65005",
        "Lon": "35.82101",
        "Country": "Türkiye",
        "City": "Amasya",
        "County": "Merkez",
        "District": "Hacı İlyas",
        "CountryId": 1,
        "CityId": 5,
        "CountyId": 1134,
        "DistrictId": 1303,
        "StoreCount": 21,
        "CategoryCount": 13,
        "ATMCount": 4
    },
    {
        "Id": 1065,
        "Title": "365 AVM",
        "Phone": "0312 450 0 365",
        "Address": "Birlik Mh 428.Cd Yıldız-Çankaya Ankara",
        "Logo": "https://images.endeksa.com/images/shopping-centers/logos/365-avm.jpg",
        "Photo": "https://images.endeksa.com/images/shopping-centers/photos/365-avm.jpg",
        "Lat": "39.89305",
        "Lon": "32.86074",
        "Country": "Türkiye",
        "City": "Ankara",
        "County": "Çankaya",
        "District": "Çankaya",
        "CountryId": 1,
        "CityId": 6,
        "CountyId": 1231,
        "DistrictId": 1536,
        "StoreCount": 54,
        "CategoryCount": 18,
        "ATMCount": 9
    },
    {
        "Id": 1066,
        "Title": "ACity AVM",
        "Phone": "0312 397 02 00",
        "Address": "FSM Bulv. 5.km  Macunköy Ankara",
        "Logo": "https://images.endeksa.com/images/shopping-centers/logos/acity-avm.png",
        "Photo": "https://images.endeksa.com/images/shopping-centers/photos/acity-avm.jpg",
        "Lat": "39.94645",
        "Lon": "32.76227",
        "Country": "Türkiye",
        "City": "Ankara",
        "County": "Yenimahalle",
        "District": "Macun",
        "CountryId": 1,
        "CityId": 6,
        "CountyId": 1723,
        "DistrictId": 1881,
        "StoreCount": 88,
        "CategoryCount": 19,
        "ATMCount": 13
    },
    {
        "Id": 1067,
        "Title": "Anatolium Ankara AVM",
        "Phone": "0312 392 90 34",
        "Address": "Akşemsettin Mh Doğukent Cd Boğaziçi",
        "Logo": "https://images.endeksa.com/images/shopping-centers/logos/anatolium-ankara-avm.jpg",
        "Photo": "https://images.endeksa.com/images/shopping-centers/photos/anatolium-ankara-avm.jpg",
        "Lat": "39.88778",
        "Lon": "32.93288",
        "Country": "Türkiye",
        "City": "Ankara",
        "County": "Mamak",
        "District": "Akşemsettin",
        "CountryId": 1,
        "CityId": 6,
        "CountyId": 1746,
        "DistrictId": 1745,
        "StoreCount": 51,
        "CategoryCount": 14,
        "ATMCount": 9
    },
    {
        "Id": 1068,
        "Title": "Ankamall AVM",
        "Phone": "0312 541 12 12",
        "Address": "Gazi Mh Akköprü / Ankara",
        "Logo": "https://images.endeksa.com/images/shopping-centers/logos/ankamall-avm.jpg",
        "Photo": "https://images.endeksa.com/images/shopping-centers/photos/ankamall-avm.jpg",
        "Lat": "39.95086",
        "Lon": "32.83288",
        "Country": "Türkiye",
        "City": "Ankara",
        "County": "Yenimahalle",
        "District": "Gazi",
        "CountryId": 1,
        "CityId": 6,
        "CountyId": 1723,
        "DistrictId": 1867,
        "StoreCount": 217,
        "CategoryCount": 22,
        "ATMCount": 12
    },
    {
        "Id": 1069,
        "Title": "Ankapark",
        "Phone": "",
        "Address": "",
        "Logo": "https://images.endeksa.com/images/shopping-centers/logos/ankapark.jpg",
        "Photo": "https://images.endeksa.com/images/shopping-centers/photos/ankapark.jpg",
        "Lat": "39.9458049",
        "Lon": "32.7840738",
        "Country": "Türkiye",
        "City": "Ankara",
        "County": "Yenimahalle",
        "District": "Gazi",
        "CountryId": 1,
        "CityId": 6,
        "CountyId": 1723,
        "DistrictId": 1867,
        "StoreCount": 0,
        "CategoryCount": 0,
        "ATMCount": 0
    },
    {
        "Id": 1070,
        "Title": "Antares AVM",
        "Phone": "0312 321 0600",
        "Address": "Halil Sezai Erkut Cd Etlik ANKARA",
        "Logo": "https://images.endeksa.com/images/shopping-centers/logos/antares-avm.jpg",
        "Photo": "https://images.endeksa.com/images/shopping-centers/photos/antares-avm.jpg",
        "Lat": "39.96937",
        "Lon": "32.82077",
        "Country": "Türkiye",
        "City": "Ankara",
        "County": "Keçiören",
        "District": "Ayvalı",
        "CountryId": 1,
        "CityId": 6,
        "CountyId": 1745,
        "DistrictId": 1687,
        "StoreCount": 126,
        "CategoryCount": 22,
        "ATMCount": 12
    },
    {
        "Id": 1071,
        "Title": "Arcadium AVM",
        "Phone": "0312 241 15 00",
        "Address": "Koru Mh 2432.cd Çayyolu Ankara",
        "Logo": "https://images.endeksa.com/images/shopping-centers/logos/arcadium-avm.jpg",
        "Photo": "https://images.endeksa.com/images/shopping-centers/photos/arcadium-avm.jpg",
        "Lat": "39.88294",
        "Lon": "32.68584",
        "Country": "Türkiye",
        "City": "Ankara",
        "County": "Çankaya",
        "District": "Koru",
        "CountryId": 1,
        "CityId": 6,
        "CountyId": 1231,
        "DistrictId": 1880,
        "StoreCount": 49,
        "CategoryCount": 17,
        "ATMCount": 7
    },
    {
        "Id": 1072,
        "Title": "Armada AVM",
        "Phone": "0312 219 13 19",
        "Address": "Beştepeler Mh Söğütözü Ankara",
        "Logo": "https://images.endeksa.com/images/shopping-centers/logos/armada-avm.jpg",
        "Photo": "https://images.endeksa.com/images/shopping-centers/photos/armada-avm.jpg",
        "Lat": "39.91265",
        "Lon": "32.80886",
        "Country": "Türkiye",
        "City": "Ankara",
        "County": "Yenimahalle",
        "District": "Beştepe",
        "CountryId": 1,
        "CityId": 6,
        "CountyId": 1723,
        "DistrictId": 1854,
        "StoreCount": 146,
        "CategoryCount": 22,
        "ATMCount": 11
    },
    {
        "Id": 1073,
        "Title": "Atakule AVM",
        "Phone": "444 6 282",
        "Address": "Atakule, 06690 Çankaya Ankara",
        "Logo": "https://images.endeksa.com/images/shopping-centers/logos/atakule-avm.jpg",
        "Photo": "https://images.endeksa.com/images/shopping-centers/photos/atakule-avm.jpg",
        "Lat": "39.88630",
        "Lon": "32.85575",
        "Country": "Türkiye",
        "City": "Ankara",
        "County": "Çankaya",
        "District": "Çankaya",
        "CountryId": 1,
        "CityId": 6,
        "CountyId": 1231,
        "DistrictId": 1536,
        "StoreCount": 26,
        "CategoryCount": 15,
        "ATMCount": 0
    },
    {
        "Id": 1074,
        "Title": "ATG AVM",
        "Phone": "0312 508 10 00",
        "Address": "Eti Mahallesi Celal Bayar Bulvarı No:78 Ankara",
        "Logo": "https://images.endeksa.com/images/shopping-centers/logos/atg-avm.jpg",
        "Photo": "https://images.endeksa.com/images/shopping-centers/photos/atg-avm.jpg",
        "Lat": "39.93572",
        "Lon": "32.84308",
        "Country": "Türkiye",
        "City": "Ankara",
        "County": "Altındağ",
        "District": "Anafartalar",
        "CountryId": 1,
        "CityId": 6,
        "CountyId": 1130,
        "DistrictId": 1448,
        "StoreCount": 14,
        "CategoryCount": 5,
        "ATMCount": 8
    },
    {
        "Id": 1075,
        "Title": "Atlantis AVM",
        "Phone": "0312 256 23 23",
        "Address": "Başkent Bulv No:224 Batıkent Ankara",
        "Logo": "https://images.endeksa.com/images/shopping-centers/logos/atlantis-avm.jpg",
        "Photo": "https://images.endeksa.com/images/shopping-centers/photos/atlantis-avm.jpg",
        "Lat": "39.96943",
        "Lon": "32.71501",
        "Country": "Türkiye",
        "City": "Ankara",
        "County": "Yenimahalle",
        "District": "Kentkoop",
        "CountryId": 1,
        "CityId": 6,
        "CountyId": 1723,
        "DistrictId": 1878,
        "StoreCount": 72,
        "CategoryCount": 20,
        "ATMCount": 11
    },
    {
        "Id": 1076,
        "Title": "Bilkent Center AVM",
        "Phone": "0312 266 05 16",
        "Address": "Üniversiteler Mh. Ankara",
        "Logo": "https://images.endeksa.com/images/shopping-centers/logos/bilkent-center-avm.jpg",
        "Photo": "https://images.endeksa.com/images/shopping-centers/photos/bilkent-center-avm.jpg",
        "Lat": "39.88355",
        "Lon": "32.75842",
        "Country": "Türkiye",
        "City": "Ankara",
        "County": "Çankaya",
        "District": "Üniversiteler",
        "CountryId": 1,
        "CityId": 6,
        "CountyId": 1231,
        "DistrictId": 1592,
        "StoreCount": 33,
        "CategoryCount": 15,
        "ATMCount": 4
    },
    {
        "Id": 1077,
        "Title": "Cepa AVM",
        "Phone": "0312 219 64 01",
        "Address": "Eskişehir Yolu 7.km ODTÜ Karşısı ANKARA",
        "Logo": "https://images.endeksa.com/images/shopping-centers/logos/cepa-avm.jpg",
        "Photo": "https://images.endeksa.com/images/shopping-centers/photos/cepa-avm.jpg",
        "Lat": "39.90891",
        "Lon": "32.77839",
        "Country": "Türkiye",
        "City": "Ankara",
        "County": "Çankaya",
        "District": "Mustafa Kemal",
        "CountryId": 1,
        "CityId": 6,
        "CountyId": 1231,
        "DistrictId": 1584,
        "StoreCount": 130,
        "CategoryCount": 22,
        "ATMCount": 13
    },
    {
        "Id": 1078,
        "Title": "Emporia AVM",
        "Phone": "0312 491 91 50",
        "Address": "Yukarı Yurtçu Mh Evliya Çelebi Cd Etimesgut Ankara",
        "Logo": "https://images.endeksa.com/images/shopping-centers/logos/emporia-avm.jpg",
        "Photo": "https://images.endeksa.com/images/shopping-centers/photos/emporia-avm.jpg",
        "Lat": "39.84131",
        "Lon": "32.53996",
        "Country": "Türkiye",
        "City": "Ankara",
        "County": "Etimesgut",
        "District": "Atayurt",
        "CountryId": 1,
        "CityId": 6,
        "CountyId": 1922,
        "DistrictId": 183238,
        "StoreCount": 1,
        "CategoryCount": 1,
        "ATMCount": 0
    },
    {
        "Id": 1079,
        "Title": "Forum Ankara /Outlet",
        "Phone": "0312 567 10 00",
        "Address": "Yozgat Bulv 99 Ovacık Keçiören Ankara",
        "Logo": "https://images.endeksa.com/images/shopping-centers/logos/forum-ankara--outlet.jpg",
        "Photo": "https://images.endeksa.com/images/shopping-centers/photos/forum-ankara--outlet.jpg",
        "Lat": "40.01669",
        "Lon": "32.82352",
        "Country": "Türkiye",
        "City": "Ankara",
        "County": "Keçiören",
        "District": "Ovacık",
        "CountryId": 1,
        "CityId": 6,
        "CountyId": 1745,
        "DistrictId": 1709,
        "StoreCount": 86,
        "CategoryCount": 19,
        "ATMCount": 9
    },
    {
        "Id": 1080,
        "Title": "FTZ AVM",
        "Phone": "0312 358 26 26",
        "Address": "Fatih Cd No:30 KEÇİÖREN -ANKARA",
        "Logo": "https://images.endeksa.com/images/shopping-centers/logos/ftz-avm.jpg",
        "Photo": "https://images.endeksa.com/images/shopping-centers/photos/ftz-avm.jpg",
        "Lat": "39.97664",
        "Lon": "32.86716",
        "Country": "Türkiye",
        "City": "Ankara",
        "County": "Keçiören",
        "District": "Kalaba",
        "CountryId": 1,
        "CityId": 6,
        "CountyId": 1745,
        "DistrictId": 1701,
        "StoreCount": 22,
        "CategoryCount": 14,
        "ATMCount": 6
    },
    {
        "Id": 1081,
        "Title": "Gordion AVM",
        "Phone": "0312 233 70 00",
        "Address": "Ankaralılar Cd Koru Mh Yenimahalle Ankara",
        "Logo": "https://images.endeksa.com/images/shopping-centers/logos/gordion-avm.jpg",
        "Photo": "https://images.endeksa.com/images/shopping-centers/photos/gordion-avm.jpg",
        "Lat": "39.89968",
        "Lon": "32.69164",
        "Country": "Türkiye",
        "City": "Ankara",
        "County": "Çankaya",
        "District": "Koru",
        "CountryId": 1,
        "CityId": 6,
        "CountyId": 1231,
        "DistrictId": 1880,
        "StoreCount": 103,
        "CategoryCount": 21,
        "ATMCount": 8
    },
    {
        "Id": 1082,
        "Title": "Kentpark AVM",
        "Phone": "444 74 77",
        "Address": "Eskişehir Yolu 7.km  No:164 Çankaya/Ankara",
        "Logo": "https://images.endeksa.com/images/shopping-centers/logos/kentpark-avm.jpg",
        "Photo": "https://images.endeksa.com/images/shopping-centers/photos/kentpark-avm.jpg",
        "Lat": "39.91018",
        "Lon": "32.77598",
        "Country": "Türkiye",
        "City": "Ankara",
        "County": "Çankaya",
        "District": "Mustafa Kemal",
        "CountryId": 1,
        "CityId": 6,
        "CountyId": 1231,
        "DistrictId": 1584,
        "StoreCount": 122,
        "CategoryCount": 19,
        "ATMCount": 10
    },
    {
        "Id": 1083,
        "Title": "Kızılay AVM",
        "Phone": "0312 419 25 26",
        "Address": "Atatürk Bulvarı No:96 Kızılay/ANKARA",
        "Logo": "https://images.endeksa.com/images/shopping-centers/logos/kızılay-avm.jpg",
        "Photo": "https://images.endeksa.com/images/shopping-centers/photos/kızılay-avm.jpg",
        "Lat": "39.921579104757164",
        "Lon": "32.8531301092367",
        "Country": "Türkiye",
        "City": "Ankara",
        "County": "Çankaya",
        "District": "Kızılay",
        "CountryId": 1,
        "CityId": 6,
        "CountyId": 1231,
        "DistrictId": 1569,
        "StoreCount": 46,
        "CategoryCount": 13,
        "ATMCount": 11
    },
    {
        "Id": 1084,
        "Title": "Kuzu Effect AVM",
        "Phone": "",
        "Address": "",
        "Logo": "https://images.endeksa.com/images/shopping-centers/logos/kuzu-effect-avm.jpg",
        "Photo": "https://images.endeksa.com/images/shopping-centers/photos/kuzu-effect-avm.jpg",
        "Lat": "39.8454044",
        "Lon": "32.8253928",
        "Country": "Türkiye",
        "City": "Ankara",
        "County": "Çankaya",
        "District": "Oran",
        "CountryId": 1,
        "CityId": 6,
        "CountyId": 1231,
        "DistrictId": 1590,
        "StoreCount": 38,
        "CategoryCount": 18,
        "ATMCount": 0
    },
    {
        "Id": 1085,
        "Title": "MetroMall AVM",
        "Phone": "0312 504 1515",
        "Address": "Tunahan Mh Dumlupınar 30Ağustos Cd Eryaman ANKARA",
        "Logo": "https://images.endeksa.com/images/shopping-centers/logos/metromall-avm.jpg",
        "Photo": "https://images.endeksa.com/images/shopping-centers/photos/metromall-avm.jpg",
        "Lat": "39.98338",
        "Lon": "32.61049",
        "Country": "Türkiye",
        "City": "Ankara",
        "County": "Etimesgut",
        "District": "Tunahan",
        "CountryId": 1,
        "CityId": 6,
        "CountyId": 1922,
        "DistrictId": 1637,
        "StoreCount": 108,
        "CategoryCount": 22,
        "ATMCount": 0
    },
    {
        "Id": 1086,
        "Title": "Nata Vega AVM /Outlet",
        "Phone": "0312 554 2700",
        "Address": "Doğukent Bulvarı Mamak Ankara",
        "Logo": "https://images.endeksa.com/images/shopping-centers/logos/nata-vega-avm--outlet.jpg",
        "Photo": "https://images.endeksa.com/images/shopping-centers/photos/nata-vega-avm--outlet.jpg",
        "Lat": "39.88732",
        "Lon": "32.93418",
        "Country": "Türkiye",
        "City": "Ankara",
        "County": "Mamak",
        "District": "Akşemsettin",
        "CountryId": 1,
        "CityId": 6,
        "CountyId": 1746,
        "DistrictId": 1745,
        "StoreCount": 85,
        "CategoryCount": 19,
        "ATMCount": 10
    },
    {
        "Id": 1087,
        "Title": "Next Level AVM",
        "Phone": "444 47 19",
        "Address": "Eskişehir Yolu Söğütözü Çankaya ANKARA",
        "Logo": "https://images.endeksa.com/images/shopping-centers/logos/next-level-avm.jpg",
        "Photo": "https://images.endeksa.com/images/shopping-centers/photos/next-level-avm.jpg",
        "Lat": "39.911108671528794",
        "Lon": "32.81278752668802",
        "Country": "Türkiye",
        "City": "Ankara",
        "County": "Çankaya",
        "District": "Kızılırmak",
        "CountryId": 1,
        "CityId": 6,
        "CountyId": 1231,
        "DistrictId": 1570,
        "StoreCount": 58,
        "CategoryCount": 20,
        "ATMCount": 5
    },
    {
        "Id": 1088,
        "Title": "One Tower AVM",
        "Phone": "0312 491 78 78",
        "Address": "Kudüs Cd Oran Mh Çankaya Ankara",
        "Logo": "https://images.endeksa.com/images/shopping-centers/logos/one-tower-avm.jpg",
        "Photo": "https://images.endeksa.com/images/shopping-centers/photos/one-tower-avm.jpg",
        "Lat": "39.84947",
        "Lon": "32.83545",
        "Country": "Türkiye",
        "City": "Ankara",
        "County": "Çankaya",
        "District": "Oran",
        "CountryId": 1,
        "CityId": 6,
        "CountyId": 1231,
        "DistrictId": 1590,
        "StoreCount": 27,
        "CategoryCount": 10,
        "ATMCount": 4
    },
    {
        "Id": 1089,
        "Title": "Optimum Ankara /Outlet",
        "Phone": "0850 207 57 67",
        "Address": "Eryaman Ayaş Yolu No:93 Ankara",
        "Logo": "https://images.endeksa.com/images/shopping-centers/logos/optimum-ankara--outlet.jpg",
        "Photo": "https://images.endeksa.com/images/shopping-centers/photos/optimum-ankara--outlet.jpg",
        "Lat": "39.96576",
        "Lon": "32.63190",
        "Country": "Türkiye",
        "City": "Ankara",
        "County": "Etimesgut",
        "District": "Etiler",
        "CountryId": 1,
        "CityId": 6,
        "CountyId": 1922,
        "DistrictId": 1628,
        "StoreCount": 109,
        "CategoryCount": 19,
        "ATMCount": 11
    },
    {
        "Id": 1090,
        "Title": "Panora AVM",
        "Phone": "0312 490 42 50",
        "Address": "TuranGüneş Bulv Oran Çankaya Ankara",
        "Logo": "https://images.endeksa.com/images/shopping-centers/logos/panora-avm.jpg",
        "Photo": "https://images.endeksa.com/images/shopping-centers/photos/panora-avm.jpg",
        "Lat": "39.84828",
        "Lon": "32.83348",
        "Country": "Türkiye",
        "City": "Ankara",
        "County": "Çankaya",
        "District": "Oran",
        "CountryId": 1,
        "CityId": 6,
        "CountyId": 1231,
        "DistrictId": 1590,
        "StoreCount": 108,
        "CategoryCount": 20,
        "ATMCount": 11
    },
    {
        "Id": 1279,
        "Title": "Podium AVM",
        "Phone": "0312 397 94 00",
        "Address": "Macun Mh Bağdat Cd Yenimahalle ANKARA",
        "Logo": "https://images.endeksa.com/images/shopping-centers/logos/podium-avm.jpg",
        "Photo": "https://images.endeksa.com/images/shopping-centers/photos/podium-avm.jpg",
        "Lat": "39.96226",
        "Lon": "32.77020",
        "Country": "Türkiye",
        "City": "Ankara",
        "County": "Yenimahalle",
        "District": "Mehmet Akif Ersoy",
        "CountryId": 1,
        "CityId": 6,
        "CountyId": 1723,
        "DistrictId": 1882,
        "StoreCount": 36,
        "CategoryCount": 14,
        "ATMCount": 7
    },
    {
        "Id": 1091,
        "Title": "Podium AVM Ankara",
        "Phone": "0312 397 94 00",
        "Address": "Macun Mh Bağdat Cd Yenimahalle ANKARA",
        "Logo": "https://images.endeksa.com/images/shopping-centers/logos/podium-avm-ankara.jpg",
        "Photo": "https://images.endeksa.com/images/shopping-centers/photos/podium-avm-ankara.jpg",
        "Lat": "39.96226",
        "Lon": "32.77020",
        "Country": "Türkiye",
        "City": "Ankara",
        "County": "Yenimahalle",
        "District": "Mehmet Akif Ersoy",
        "CountryId": 1,
        "CityId": 6,
        "CountyId": 1723,
        "DistrictId": 1882,
        "StoreCount": 84,
        "CategoryCount": 21,
        "ATMCount": 9
    },
    {
        "Id": 1092,
        "Title": "Taurus AVM",
        "Phone": "0312 221 62 62",
        "Address": "Konya Yolu Mevlana Bulv Çankaya ANKARA",
        "Logo": "https://images.endeksa.com/images/shopping-centers/logos/taurus-avm.jpg",
        "Photo": "https://images.endeksa.com/images/shopping-centers/photos/taurus-avm.jpg",
        "Lat": "39.88794",
        "Lon": "32.81206",
        "Country": "Türkiye",
        "City": "Ankara",
        "County": "Çankaya",
        "District": "İşçi Blokları",
        "CountryId": 1,
        "CityId": 6,
        "CountyId": 1231,
        "DistrictId": 1562,
        "StoreCount": 99,
        "CategoryCount": 21,
        "ATMCount": 8
    },
    {
        "Id": 1093,
        "Title": "Agora Antalya /Shopping Mall",
        "Phone": "0242 333 0 700",
        "Address": "Altınova Sinan Mh. Kepez Antalya",
        "Logo": "https://images.endeksa.com/images/shopping-centers/logos/agora-antalya--shopping-mall.jpg",
        "Photo": "https://images.endeksa.com/images/shopping-centers/photos/agora-antalya--shopping-mall.jpg",
        "Lat": "36.91678",
        "Lon": "30.77768",
        "Country": "Türkiye",
        "City": "Antalya",
        "County": "Kepez",
        "District": "Altınova Sinan",
        "CountryId": 1,
        "CityId": 7,
        "CountyId": 2037,
        "DistrictId": 2282,
        "StoreCount": 69,
        "CategoryCount": 19,
        "ATMCount": 0
    },
    {
        "Id": 1094,
        "Title": "Alanyum AVM /Shopping Mall",
        "Phone": "0242 515 11 34",
        "Address": "Cumhuriyet Mh Keykubat Bulv ALANYA",
        "Logo": "https://images.endeksa.com/images/shopping-centers/logos/alanyum-avm--shopping-mall.jpg",
        "Photo": "https://images.endeksa.com/images/shopping-centers/photos/alanyum-avm--shopping-mall.jpg",
        "Lat": "36.54321",
        "Lon": "32.03178",
        "Country": "Türkiye",
        "City": "Antalya",
        "County": "Alanya",
        "District": "Cumhuriyet",
        "CountryId": 1,
        "CityId": 7,
        "CountyId": 1126,
        "DistrictId": 2506,
        "StoreCount": 35,
        "CategoryCount": 17,
        "ATMCount": 5
    },
    {
        "Id": 1095,
        "Title": "Antalya Migros AVM /Shopping Mall",
        "Phone": "0242 230 11 11",
        "Address": "Arapsuyu Mh Atatürk Bulv Konyaaltı ANTALYA",
        "Logo": "https://images.endeksa.com/images/shopping-centers/logos/antalya-migros-avm--shopping-mall.jpg",
        "Photo": "https://images.endeksa.com/images/shopping-centers/photos/antalya-migros-avm--shopping-mall.jpg",
        "Lat": "36.88368",
        "Lon": "30.66038",
        "Country": "Türkiye",
        "City": "Antalya",
        "County": "Konyaaltı",
        "District": "Arapsuyu",
        "CountryId": 1,
        "CityId": 7,
        "CountyId": 2038,
        "DistrictId": 2333,
        "StoreCount": 98,
        "CategoryCount": 20,
        "ATMCount": 10
    },
    {
        "Id": 1096,
        "Title": "Deepo AVM /Outlet",
        "Phone": "0242 340 54 70",
        "Address": "Altınova Sinan Mh Serik Cd Havalimanı Karşısı KEPEZ ANTALYA",
        "Logo": "https://images.endeksa.com/images/shopping-centers/logos/deepo-avm--outlet.jpg",
        "Photo": "https://images.endeksa.com/images/shopping-centers/photos/deepo-avm--outlet.jpg",
        "Lat": "36.92128",
        "Lon": "30.78480",
        "Country": "Türkiye",
        "City": "Antalya",
        "County": "Kepez",
        "District": "Altınova Sinan",
        "CountryId": 1,
        "CityId": 7,
        "CountyId": 2037,
        "DistrictId": 2282,
        "StoreCount": 116,
        "CategoryCount": 20,
        "ATMCount": 6
    },
    {
        "Id": 1097,
        "Title": "Erasta Antalya /Shopping Mall",
        "Phone": "0242 345 35 40",
        "Address": "Dumlupınar bulv No:49 Kepez Antalya",
        "Logo": "https://images.endeksa.com/images/shopping-centers/logos/erasta-antalya--shopping-mall.jpg",
        "Photo": "https://images.endeksa.com/images/shopping-centers/photos/erasta-antalya--shopping-mall.jpg",
        "Lat": "36.90775",
        "Lon": "30.66464",
        "Country": "Türkiye",
        "City": "Antalya",
        "County": "Kepez",
        "District": "Fabrikalar",
        "CountryId": 1,
        "CityId": 7,
        "CountyId": 2037,
        "DistrictId": 2295,
        "StoreCount": 33,
        "CategoryCount": 14,
        "ATMCount": 6
    },
    {
        "Id": 1098,
        "Title": "Laura AVM /Shopping Mall",
        "Phone": "0242 323 66 29",
        "Address": "Fener Mh Bülent Ecevit Bulv Lara Antalya",
        "Logo": "https://images.endeksa.com/images/shopping-centers/logos/laura-avm--shopping-mall.jpg",
        "Photo": "https://images.endeksa.com/images/shopping-centers/photos/laura-avm--shopping-mall.jpg",
        "Lat": "36.85796",
        "Lon": "30.74620",
        "Country": "Türkiye",
        "City": "Antalya",
        "County": "Muratpaşa",
        "District": "Fener",
        "CountryId": 1,
        "CityId": 7,
        "CountyId": 2039,
        "DistrictId": 2370,
        "StoreCount": 20,
        "CategoryCount": 15,
        "ATMCount": 11
    },
    {
        "Id": 1099,
        "Title": "Mall of Antalya /Shopping Mall",
        "Phone": "0242 340 54 70",
        "Address": "Altınova Sinan Mh Kepez Antalya",
        "Logo": "https://images.endeksa.com/images/shopping-centers/logos/mall-of-antalya--shopping-mall.jpg",
        "Photo": "https://images.endeksa.com/images/shopping-centers/photos/mall-of-antalya--shopping-mall.jpg",
        "Lat": "36.92055",
        "Lon": "30.78603",
        "Country": "Türkiye",
        "City": "Antalya",
        "County": "Kepez",
        "District": "Altınova Sinan",
        "CountryId": 1,
        "CityId": 7,
        "CountyId": 2037,
        "DistrictId": 2282,
        "StoreCount": 111,
        "CategoryCount": 21,
        "ATMCount": 0
    },
    {
        "Id": 1100,
        "Title": "Mark Antalya AVM /Shopping Mall",
        "Phone": "0242 244 66 66",
        "Address": "Tahılpazarı Mh Şarampol Cd Muratpaşa ANTALYA",
        "Logo": "https://images.endeksa.com/images/shopping-centers/logos/mark-antalya-avm--shopping-mall.jpg",
        "Photo": "https://images.endeksa.com/images/shopping-centers/photos/mark-antalya-avm--shopping-mall.jpg",
        "Lat": "36.89302",
        "Lon": "30.70395",
        "Country": "Türkiye",
        "City": "Antalya",
        "County": "Muratpaşa",
        "District": "Tahılpazarı",
        "CountryId": 1,
        "CityId": 7,
        "CountyId": 2039,
        "DistrictId": 2396,
        "StoreCount": 101,
        "CategoryCount": 21,
        "ATMCount": 5
    },
    {
        "Id": 1101,
        "Title": "Novamall AVM /Shopping Mall",
        "Phone": "0242 742 15 18",
        "Address": "8096 Sk. Manavgat/ Antalya",
        "Logo": "https://images.endeksa.com/images/shopping-centers/logos/novamall-avm--shopping-mall.jpg",
        "Photo": "https://images.endeksa.com/images/shopping-centers/photos/novamall-avm--shopping-mall.jpg",
        "Lat": "36.78137",
        "Lon": "31.42546",
        "Country": "Türkiye",
        "City": "Antalya",
        "County": "Manavgat",
        "District": "Sorgun",
        "CountryId": 1,
        "CityId": 7,
        "CountyId": 1512,
        "DistrictId": 2735,
        "StoreCount": 69,
        "CategoryCount": 18,
        "ATMCount": 6
    },
    {
        "Id": 1102,
        "Title": "Özdilek Park Antalya /Shopping Mall",
        "Phone": "0 242 334 33 99",
        "Address": "Fabrikalar Mh Fikri Erten Cd Kepez ANTALYA",
        "Logo": "https://images.endeksa.com/images/shopping-centers/logos/özdilek-park-antalya--shopping-mall.jpg",
        "Photo": "https://images.endeksa.com/images/shopping-centers/photos/özdilek-park-antalya--shopping-mall.jpg",
        "Lat": "36.91030",
        "Lon": "30.67724",
        "Country": "Türkiye",
        "City": "Antalya",
        "County": "Kepez",
        "District": "Fabrikalar",
        "CountryId": 1,
        "CityId": 7,
        "CountyId": 2037,
        "DistrictId": 2295,
        "StoreCount": 74,
        "CategoryCount": 18,
        "ATMCount": 13
    },
    {
        "Id": 1103,
        "Title": "Shemall AVM /Shopping Mall",
        "Phone": "0242 323 47 47",
        "Address": "Zümrütova Mh 07160 Muratpaşa Antalya",
        "Logo": "https://images.endeksa.com/images/shopping-centers/logos/shemall-avm--shopping-mall.jpg",
        "Photo": "https://images.endeksa.com/images/shopping-centers/photos/shemall-avm--shopping-mall.jpg",
        "Lat": "36.85688",
        "Lon": "30.74663",
        "Country": "Türkiye",
        "City": "Antalya",
        "County": "Muratpaşa",
        "District": "Fener",
        "CountryId": 1,
        "CityId": 7,
        "CountyId": 2039,
        "DistrictId": 2370,
        "StoreCount": 20,
        "CategoryCount": 13,
        "ATMCount": 2
    },
    {
        "Id": 1104,
        "Title": "Terracity AVM /Shopping Mall",
        "Phone": "0242 318 18 18",
        "Address": "Fener Mh Tekelioglu Cd Lara Muratpaşa Antalya",
        "Logo": "https://images.endeksa.com/images/shopping-centers/logos/terracity-avm--shopping-mall.jpg",
        "Photo": "https://images.endeksa.com/images/shopping-centers/photos/terracity-avm--shopping-mall.jpg",
        "Lat": "36.85223",
        "Lon": "30.75661",
        "Country": "Türkiye",
        "City": "Antalya",
        "County": "Muratpaşa",
        "District": "Fener",
        "CountryId": 1,
        "CityId": 7,
        "CountyId": 2039,
        "DistrictId": 2370,
        "StoreCount": 144,
        "CategoryCount": 20,
        "ATMCount": 7
    },
    {
        "Id": 1105,
        "Title": "The Land Of Legends /Shopping Avenue",
        "Phone": "444 99 13",
        "Address": "Kadriye Mh Atatürk Cd No 515-1 Serik Antalya",
        "Logo": "https://images.endeksa.com/images/shopping-centers/logos/the-land-of-legends--shopping-avenue.jpg",
        "Photo": "https://images.endeksa.com/images/shopping-centers/photos/the-land-of-legends--shopping-avenue.jpg",
        "Lat": "36.87808",
        "Lon": "31.00385",
        "Country": "Türkiye",
        "City": "Antalya",
        "County": "Serik",
        "District": "Kadriye",
        "CountryId": 1,
        "CityId": 7,
        "CountyId": 1616,
        "DistrictId": 182011,
        "StoreCount": 63,
        "CategoryCount": 15,
        "ATMCount": 1
    },
    {
        "Id": 1106,
        "Title": "Bamboo AVM Nazilli",
        "Phone": "0232 469 75 00",
        "Address": "İsabeyli mh 11.Cd Nazilli AYDIN",
        "Logo": "https://images.endeksa.com/images/shopping-centers/logos/bamboo-avm-nazilli.jpg",
        "Photo": "https://images.endeksa.com/images/shopping-centers/photos/bamboo-avm-nazilli.jpg",
        "Lat": "37.89867",
        "Lon": "28.27820",
        "Country": "Türkiye",
        "City": "Aydın",
        "County": "Nazilli",
        "District": "İsabeyli",
        "CountryId": 1,
        "CityId": 9,
        "CountyId": 1542,
        "DistrictId": 144389,
        "StoreCount": 35,
        "CategoryCount": 15,
        "ATMCount": 6
    },
    {
        "Id": 1107,
        "Title": "Forum Aydın AVM",
        "Phone": "0256 218 14 00",
        "Address": "Aydın OrtaMerkez Mh Müze bulv AYDIN",
        "Logo": "https://images.endeksa.com/images/shopping-centers/logos/forum-aydın-avm.jpg",
        "Photo": "https://images.endeksa.com/images/shopping-centers/photos/forum-aydın-avm.jpg",
        "Lat": "37.84588",
        "Lon": "27.86000",
        "Country": "Türkiye",
        "City": "Aydın",
        "County": "Efeler",
        "District": "Orta",
        "CountryId": 1,
        "CityId": 9,
        "CountyId": 2076,
        "DistrictId": 10053,
        "StoreCount": 74,
        "CategoryCount": 21,
        "ATMCount": 7
    },
    {
        "Id": 1108,
        "Title": "Kipa AVM Aydın",
        "Phone": "0256 212 79 02",
        "Address": "Cumhuriyet Mh istasyon Cd Aydın",
        "Logo": "https://images.endeksa.com/images/shopping-centers/logos/kipa-avm-aydın.jpg",
        "Photo": "https://images.endeksa.com/images/shopping-centers/photos/kipa-avm-aydın.jpg",
        "Lat": "37.84727",
        "Lon": "27.84010",
        "Country": "Türkiye",
        "City": "Aydın",
        "County": "Efeler",
        "District": "Cumhuriyet",
        "CountryId": 1,
        "CityId": 9,
        "CountyId": 2076,
        "DistrictId": 10039,
        "StoreCount": 10,
        "CategoryCount": 9,
        "ATMCount": 3
    },
    {
        "Id": 1109,
        "Title": "Kuşadası Avym",
        "Phone": "0256 614 81 81",
        "Address": "Yavansu Mh Karaova1 sk Aydın Kuşadası",
        "Logo": "https://images.endeksa.com/images/shopping-centers/logos/kuşadası-avym.jpg",
        "Photo": "https://images.endeksa.com/images/shopping-centers/photos/kuşadası-avym.jpg",
        "Lat": "37.81073",
        "Lon": "27.27953",
        "Country": "Türkiye",
        "City": "Aydın",
        "County": "Kuşadası",
        "District": "Yavansu",
        "CountryId": 1,
        "CityId": 9,
        "CountyId": 1497,
        "DistrictId": 10189,
        "StoreCount": 48,
        "CategoryCount": 17,
        "ATMCount": 5
    },
    {
        "Id": 1110,
        "Title": "Novada Söke /Outlet",
        "Phone": "0256 512 88 00",
        "Address": "Atatürk Mh Aydın Yolu Söke Aydın",
        "Logo": "https://images.endeksa.com/images/shopping-centers/logos/novada-söke--outlet.jpg",
        "Photo": "https://images.endeksa.com/images/shopping-centers/photos/novada-söke--outlet.jpg",
        "Lat": "37.76722",
        "Lon": "27.42627",
        "Country": "Türkiye",
        "City": "Aydın",
        "County": "Söke",
        "District": "Atatürk",
        "CountryId": 1,
        "CityId": 9,
        "CountyId": 1637,
        "DistrictId": 10259,
        "StoreCount": 48,
        "CategoryCount": 18,
        "ATMCount": 8
    },
    {
        "Id": 1111,
        "Title": "10 Burda AVM",
        "Phone": "0266 266 10 10",
        "Address": "Gaziosmanpaşa Mh, Yeni İzmir Yolu Altıeylül/Balıkesir",
        "Logo": "https://images.endeksa.com/images/shopping-centers/logos/10-burda-avm.jpg",
        "Photo": "https://images.endeksa.com/images/shopping-centers/photos/10-burda-avm.jpg",
        "Lat": "39.61387",
        "Lon": "27.89343",
        "Country": "Türkiye",
        "City": "Balıkesir",
        "County": "Altıeylül",
        "District": "Gaziosmanpaşa",
        "CountryId": 1,
        "CityId": 10,
        "CountyId": 2077,
        "DistrictId": 10317,
        "StoreCount": 68,
        "CategoryCount": 20,
        "ATMCount": 0
    },
    {
        "Id": 1112,
        "Title": "Liman AVM /Shopping Mall",
        "Phone": "0266 717 00 00",
        "Address": "17Eylül Mh. Gönen Yolu No:2/1  Bandırma/ Balıkesir",
        "Logo": "https://images.endeksa.com/images/shopping-centers/logos/liman-avm--shopping-mall.jpg",
        "Photo": "https://images.endeksa.com/images/shopping-centers/photos/liman-avm--shopping-mall.jpg",
        "Lat": "40.34394",
        "Lon": "27.98115",
        "Country": "Türkiye",
        "City": "Balıkesir",
        "County": "Bandırma",
        "District": "17 Eylül",
        "CountryId": 1,
        "CityId": 10,
        "CountyId": 1171,
        "DistrictId": 10401,
        "StoreCount": 39,
        "CategoryCount": 17,
        "ATMCount": 4
    },
    {
        "Id": 1113,
        "Title": "Novada Edremit AVM",
        "Phone": "0266 392 13 02",
        "Address": "Kadıköy Mh Sezgin İnan Cd Edremit Balıkesir",
        "Logo": "https://images.endeksa.com/images/shopping-centers/logos/novada-edremit-avm.jpg",
        "Photo": "https://images.endeksa.com/images/shopping-centers/photos/novada-edremit-avm.jpg",
        "Lat": "39.59896",
        "Lon": "26.98412",
        "Country": "Türkiye",
        "City": "Balıkesir",
        "County": "Edremit",
        "District": "Kadıköy",
        "CountryId": 1,
        "CityId": 10,
        "CountyId": 1294,
        "DistrictId": 147687,
        "StoreCount": 49,
        "CategoryCount": 18,
        "ATMCount": 0
    },
    {
        "Id": 1114,
        "Title": "Yaylada AVM",
        "Phone": "0266 234 00 00",
        "Address": "Bursa yolu 1. KM  BALIKESİR",
        "Logo": "https://images.endeksa.com/images/shopping-centers/logos/yaylada-avm.jpg",
        "Photo": "https://images.endeksa.com/images/shopping-centers/photos/yaylada-avm.jpg",
        "Lat": "39.65737",
        "Lon": "27.90652",
        "Country": "Türkiye",
        "City": "Balıkesir",
        "County": "Karesi",
        "District": "Paşa Alanı",
        "CountryId": 1,
        "CityId": 10,
        "CountyId": 2078,
        "DistrictId": 10335,
        "StoreCount": 42,
        "CategoryCount": 18,
        "ATMCount": 3
    },
    {
        "Id": 1116,
        "Title": "Bozüyük AVM /Outlet",
        "Phone": "0228 315 00 00",
        "Address": "Çarşı Mh MalHatun Cd (Yeni Çevre Yolu) Bozüyük Bilecik",
        "Logo": "https://images.endeksa.com/images/shopping-centers/logos/bozüyük-avm--outlet.jpg",
        "Photo": "https://images.endeksa.com/images/shopping-centers/photos/bozüyük-avm--outlet.jpg",
        "Lat": "39.91663",
        "Lon": "30.01400",
        "Country": "Türkiye",
        "City": "Bilecik",
        "County": "Bozüyük",
        "District": "Saraycık Köyü",
        "CountryId": 1,
        "CityId": 11,
        "CountyId": 1210,
        "DistrictId": null,
        "StoreCount": 26,
        "CategoryCount": 11,
        "ATMCount": 6
    },
    {
        "Id": 1117,
        "Title": "14 Burda AVM",
        "Phone": "0374 274 12 22",
        "Address": "Paşaköy Mh D100 Karayolu Cd Bolu",
        "Logo": "https://images.endeksa.com/images/shopping-centers/logos/14-burda-avm.jpg",
        "Photo": "https://images.endeksa.com/images/shopping-centers/photos/14-burda-avm.jpg",
        "Lat": "40.73227",
        "Lon": "31.56335",
        "Country": "Türkiye",
        "City": "Bolu",
        "County": "Merkez",
        "District": "Paşaköy",
        "CountryId": 1,
        "CityId": 14,
        "CountyId": 1199,
        "DistrictId": 99434,
        "StoreCount": 58,
        "CategoryCount": 20,
        "ATMCount": 7
    },
    {
        "Id": 1118,
        "Title": "Highway AVM /Outlet",
        "Phone": "0374 250 10 14",
        "Address": "Ankara-İstanbul Otoyolu Elmalık Mevkii BOLU",
        "Logo": "https://images.endeksa.com/images/shopping-centers/logos/highway-avm--outlet.jpg",
        "Photo": "https://images.endeksa.com/images/shopping-centers/photos/highway-avm--outlet.jpg",
        "Lat": "40.72264",
        "Lon": "31.46600",
        "Country": "Türkiye",
        "City": "Bolu",
        "County": "Merkez",
        "District": "Yolçatı Köyü",
        "CountryId": 1,
        "CityId": 14,
        "CountyId": 1199,
        "DistrictId": null,
        "StoreCount": 65,
        "CategoryCount": 17,
        "ATMCount": 3
    },
    {
        "Id": 1119,
        "Title": "Anatolium AVM Bursa",
        "Phone": "0224 261 12 22",
        "Address": "Alaşar Mh Yeni Yalova Cd Osmangazi BURSA",
        "Logo": "https://images.endeksa.com/images/shopping-centers/logos/anatolium-avm-bursa.jpg",
        "Photo": "https://images.endeksa.com/images/shopping-centers/photos/anatolium-avm-bursa.jpg",
        "Lat": "40.26821",
        "Lon": "29.05409",
        "Country": "Türkiye",
        "City": "Bursa",
        "County": "Osmangazi",
        "District": "Demirtaş Dumlupınarosb",
        "CountryId": 1,
        "CityId": 16,
        "CountyId": 1832,
        "DistrictId": 11254,
        "StoreCount": 80,
        "CategoryCount": 19,
        "ATMCount": 5
    },
    {
        "Id": 1120,
        "Title": "Asmerkez AVM/Outlet",
        "Phone": "0224 261 5151",
        "Address": "Yeni Yalova Yolu, Sönmez Plaza Tesisleri Bursa",
        "Logo": "https://images.endeksa.com/images/shopping-centers/logos/asmerkez-avm-outlet.jpg",
        "Photo": "https://images.endeksa.com/images/shopping-centers/photos/asmerkez-avm-outlet.jpg",
        "Lat": "40.25583",
        "Lon": "29.06169",
        "Country": "Türkiye",
        "City": "Bursa",
        "County": "Osmangazi",
        "District": "Demirtaş Dumlupınarosb",
        "CountryId": 1,
        "CityId": 16,
        "CountyId": 1832,
        "DistrictId": 11254,
        "StoreCount": 41,
        "CategoryCount": 16,
        "ATMCount": 5
    },
    {
        "Id": 1121,
        "Title": "Carrefour Bursa AVM",
        "Phone": "0224 452 6900",
        "Address": "Orhaneli Keles Kavş. Lefkoşe Cd Nilüfer Bursa",
        "Logo": "https://images.endeksa.com/images/shopping-centers/logos/carrefour-bursa-avm.jpg",
        "Photo": "https://images.endeksa.com/images/shopping-centers/photos/carrefour-bursa-avm.jpg",
        "Lat": "40.21059",
        "Lon": "28.99541",
        "Country": "Türkiye",
        "City": "Bursa",
        "County": "Nilüfer",
        "District": "Odunluk",
        "CountryId": 1,
        "CityId": 16,
        "CountyId": 1829,
        "DistrictId": 11113,
        "StoreCount": 98,
        "CategoryCount": 20,
        "ATMCount": 8
    },
    {
        "Id": 1122,
        "Title": "Endülüs Park AVM",
        "Phone": "0224 242 52 58",
        "Address": "Ahmet Yesevi Mh Sanayi Cd Nilüfer/Bursa",
        "Logo": "https://images.endeksa.com/images/shopping-centers/logos/endülüs-park-avm.jpg",
        "Photo": "https://images.endeksa.com/images/shopping-centers/photos/endülüs-park-avm.jpg",
        "Lat": "40.26243",
        "Lon": "28.94938",
        "Country": "Türkiye",
        "City": "Bursa",
        "County": "Nilüfer",
        "District": "Balat",
        "CountryId": 1,
        "CityId": 16,
        "CountyId": 1829,
        "DistrictId": 11124,
        "StoreCount": 29,
        "CategoryCount": 13,
        "ATMCount": 0
    },
    {
        "Id": 1123,
        "Title": "İnegöl AVM Bursa",
        "Phone": "0224 777 00 10",
        "Address": "Osmaniye Mh Ahmet Akyolu cd İnegöl-Bursa",
        "Logo": "https://images.endeksa.com/images/shopping-centers/logos/inegöl-avm-bursa.jpg",
        "Photo": "https://images.endeksa.com/images/shopping-centers/photos/inegöl-avm-bursa.jpg",
        "Lat": "40.08557",
        "Lon": "29.51086",
        "Country": "Türkiye",
        "City": "Bursa",
        "County": "İnegöl",
        "District": "Osmaniye",
        "CountryId": 1,
        "CityId": 16,
        "CountyId": 1411,
        "DistrictId": 11388,
        "StoreCount": 56,
        "CategoryCount": 19,
        "ATMCount": 8
    },
    {
        "Id": 1124,
        "Title": "Kent Meydanı AVM",
        "Phone": "0224 255 4363",
        "Address": "SantralGaraj Mh Kıbrıs Şehitleri Cd Osmangazi Bursa",
        "Logo": "https://images.endeksa.com/images/shopping-centers/logos/kent-meydanı-avm.jpg",
        "Photo": "https://images.endeksa.com/images/shopping-centers/photos/kent-meydanı-avm.jpg",
        "Lat": "40.19659",
        "Lon": "29.06046",
        "Country": "Türkiye",
        "City": "Bursa",
        "County": "Osmangazi",
        "District": "Santral Garaj",
        "CountryId": 1,
        "CityId": 16,
        "CountyId": 1832,
        "DistrictId": 11226,
        "StoreCount": 77,
        "CategoryCount": 17,
        "ATMCount": 7
    },
    {
        "Id": 1125,
        "Title": "Korupark AVM",
        "Phone": "0224 242 35 35",
        "Address": "Mudanya Yolu 9.km Bursa",
        "Logo": "https://images.endeksa.com/images/shopping-centers/logos/korupark-avm.jpg",
        "Photo": "https://images.endeksa.com/images/shopping-centers/photos/korupark-avm.jpg",
        "Lat": "40.25051",
        "Lon": "28.95901",
        "Country": "Türkiye",
        "City": "Bursa",
        "County": "Osmangazi",
        "District": "Emek Adnan Menderes",
        "CountryId": 1,
        "CityId": 16,
        "CountyId": 1832,
        "DistrictId": 11255,
        "StoreCount": 157,
        "CategoryCount": 21,
        "ATMCount": 11
    },
    {
        "Id": 1126,
        "Title": "Marka AVM",
        "Phone": "0224 502 22 22",
        "Address": "Odunluk Mh, Mihraplı Cd Nilüfer BURSA",
        "Logo": "https://images.endeksa.com/images/shopping-centers/logos/marka-avm.jpg",
        "Photo": "https://images.endeksa.com/images/shopping-centers/photos/marka-avm.jpg",
        "Lat": "40.20747",
        "Lon": "28.99345",
        "Country": "Türkiye",
        "City": "Bursa",
        "County": "Nilüfer",
        "District": "Odunluk",
        "CountryId": 1,
        "CityId": 16,
        "CountyId": 1829,
        "DistrictId": 11113,
        "StoreCount": 143,
        "CategoryCount": 21,
        "ATMCount": 0
    },
    {
        "Id": 1127,
        "Title": "Özdilek Park Bursa",
        "Phone": "0224 999 65 20",
        "Address": "İzmir Yolu Alaaddin bey Kavşağı Özlüce Nilüfer Bursa",
        "Logo": "https://images.endeksa.com/images/shopping-centers/logos/özdilek-park-bursa.jpg",
        "Photo": "https://images.endeksa.com/images/shopping-centers/photos/özdilek-park-bursa.jpg",
        "Lat": "40.21251",
        "Lon": "28.91799",
        "Country": "Türkiye",
        "City": "Bursa",
        "County": "Nilüfer",
        "District": "Alaaddinbey",
        "CountryId": 1,
        "CityId": 16,
        "CountyId": 1829,
        "DistrictId": 11114,
        "StoreCount": 29,
        "CategoryCount": 14,
        "ATMCount": 0
    },
    {
        "Id": 1128,
        "Title": "Zafer Plaza AVM",
        "Phone": "0224 225 39 00",
        "Address": "Şehreküstü Mh Cemal Nadir Cd Osmangazi/Bursa",
        "Logo": "https://images.endeksa.com/images/shopping-centers/logos/zafer-plaza-avm.jpg",
        "Photo": "https://images.endeksa.com/images/shopping-centers/photos/zafer-plaza-avm.jpg",
        "Lat": "40.18718",
        "Lon": "29.05945",
        "Country": "Türkiye",
        "City": "Bursa",
        "County": "Osmangazi",
        "District": "Şehreküstü",
        "CountryId": 1,
        "CityId": 16,
        "CountyId": 1832,
        "DistrictId": 11234,
        "StoreCount": 83,
        "CategoryCount": 23,
        "ATMCount": 8
    },
    {
        "Id": 1129,
        "Title": "17 Burda AVM",
        "Phone": "0286 218 46 45",
        "Address": "Barbaros Mh Atatürk Cd No: 207 Çanakkale",
        "Logo": "https://images.endeksa.com/images/shopping-centers/logos/17-burda-avm.jpg",
        "Photo": "https://images.endeksa.com/images/shopping-centers/photos/17-burda-avm.jpg",
        "Lat": "40.12417",
        "Lon": "26.41078",
        "Country": "Türkiye",
        "City": "Çanakkale",
        "County": "Merkez",
        "District": "Barbaros",
        "CountryId": 1,
        "CityId": 17,
        "CountyId": 1230,
        "DistrictId": 20098,
        "StoreCount": 70,
        "CategoryCount": 20,
        "ATMCount": 8
    },
    {
        "Id": 1130,
        "Title": "Pakt Plus AVM",
        "Phone": "0286 316 01 03",
        "Address": "Sakarya Mh Turgut ÖZAL Cd Biga Çanakkale",
        "Logo": "https://images.endeksa.com/images/shopping-centers/logos/pakt-plus-avm.jpg",
        "Photo": "https://images.endeksa.com/images/shopping-centers/photos/pakt-plus-avm.jpg",
        "Lat": "40.22619",
        "Lon": "27.24752",
        "Country": "Türkiye",
        "City": "Çanakkale",
        "County": "Biga",
        "District": "Sakarya",
        "CountryId": 1,
        "CityId": 17,
        "CountyId": 1190,
        "DistrictId": 20126,
        "StoreCount": 12,
        "CategoryCount": 7,
        "ATMCount": 3
    },
    {
        "Id": 1131,
        "Title": "Yunus AVM",
        "Phone": "0376 212 65 60",
        "Address": "Buğday Pazarı Mh Çarşamba Pazarı Cd Çankırı",
        "Logo": "https://images.endeksa.com/images/shopping-centers/logos/yunus-avm.jpg",
        "Photo": "https://images.endeksa.com/images/shopping-centers/photos/yunus-avm.jpg",
        "Lat": "40.59835",
        "Lon": "33.62106",
        "Country": "Türkiye",
        "City": "Çankırı",
        "County": "Merkez",
        "District": "Buğday Pazarı",
        "CountryId": 1,
        "CityId": 18,
        "CountyId": 1232,
        "DistrictId": 20216,
        "StoreCount": 18,
        "CategoryCount": 11,
        "ATMCount": 8
    },
    {
        "Id": 1132,
        "Title": "AHL Park AVM",
        "Phone": "0312 397 94 00",
        "Address": "Çepni Mh Kerebigazi 1.Cd No:7 ÇORUM",
        "Logo": "https://images.endeksa.com/images/shopping-centers/logos/ahl-park-avm.jpg",
        "Photo": "https://images.endeksa.com/images/shopping-centers/photos/ahl-park-avm.jpg",
        "Lat": "40.54256",
        "Lon": "34.94674",
        "Country": "Türkiye",
        "City": "Çorum",
        "County": "Merkez",
        "District": "Çepni",
        "CountryId": 1,
        "CityId": 19,
        "CountyId": 1259,
        "DistrictId": 20330,
        "StoreCount": 74,
        "CategoryCount": 20,
        "ATMCount": 0
    },
    {
        "Id": 1133,
        "Title": "AquaMall AVM",
        "Phone": "0258 502 00 94",
        "Address": "Adnan Menderes Bulv Merkez Denizli",
        "Logo": "https://images.endeksa.com/images/shopping-centers/logos/aquamall-avm.jpg",
        "Photo": "https://images.endeksa.com/images/shopping-centers/photos/aquamall-avm.jpg",
        "Lat": "37.81887",
        "Lon": "29.05777",
        "Country": "Türkiye",
        "City": "Denizli",
        "County": "Merkezefendi",
        "District": "Kayalar",
        "CountryId": 1,
        "CityId": 20,
        "CountyId": 2079,
        "DistrictId": 20605,
        "StoreCount": 18,
        "CategoryCount": 11,
        "ATMCount": 0
    },
    {
        "Id": 1134,
        "Title": "Forum Çamlık AVM",
        "Phone": "0258 295 18 50",
        "Address": "Mehmetcik Mh Doğan Demircioğlu Cd Denizli",
        "Logo": "https://images.endeksa.com/images/shopping-centers/logos/forum-çamlık-avm.jpg",
        "Photo": "https://images.endeksa.com/images/shopping-centers/photos/forum-çamlık-avm.jpg",
        "Lat": "37.75380",
        "Lon": "29.08969",
        "Country": "Türkiye",
        "City": "Denizli",
        "County": "Pamukkale",
        "District": "Mehmetçik",
        "CountryId": 1,
        "CityId": 20,
        "CountyId": 1871,
        "DistrictId": 20579,
        "StoreCount": 100,
        "CategoryCount": 21,
        "ATMCount": 8
    },
    {
        "Id": 1135,
        "Title": "Sümerpark AVM",
        "Phone": "0258 252 12 12",
        "Address": "Sümer mh Çal cd No:1 Sümer DENİZLİ",
        "Logo": "https://images.endeksa.com/images/shopping-centers/logos/sümerpark-avm.jpg",
        "Photo": "https://images.endeksa.com/images/shopping-centers/photos/sümerpark-avm.jpg",
        "Lat": "37.79057",
        "Lon": "29.08900",
        "Country": "Türkiye",
        "City": "Denizli",
        "County": "Merkezefendi",
        "District": "Sümer",
        "CountryId": 1,
        "CityId": 20,
        "CountyId": 2079,
        "DistrictId": 20556,
        "StoreCount": 15,
        "CategoryCount": 10,
        "ATMCount": 6
    },
    {
        "Id": 1136,
        "Title": "Teraspark AVM",
        "Phone": "0258 374 04 04",
        "Address": "55. Sk No:1 20125 Yenişehir Denizli",
        "Logo": "https://images.endeksa.com/images/shopping-centers/logos/teraspark-avm.jpg",
        "Photo": "https://images.endeksa.com/images/shopping-centers/photos/teraspark-avm.jpg",
        "Lat": "37.76059",
        "Lon": "29.04287",
        "Country": "Türkiye",
        "City": "Denizli",
        "County": "Merkezefendi",
        "District": "Yenişehir",
        "CountryId": 1,
        "CityId": 20,
        "CountyId": 2079,
        "DistrictId": 20580,
        "StoreCount": 65,
        "CategoryCount": 20,
        "ATMCount": 9
    },
    {
        "Id": 1137,
        "Title": "Ceylanpark AVM",
        "Phone": "0412 290 24 00",
        "Address": "Karavil, 21100 Diyarbakır",
        "Logo": "https://images.endeksa.com/images/shopping-centers/logos/ceylanpark-avm.jpg",
        "Photo": "https://images.endeksa.com/images/shopping-centers/photos/ceylanpark-avm.jpg",
        "Lat": "37.90510",
        "Lon": "40.21296",
        "Country": "Türkiye",
        "City": "Diyarbakır",
        "County": "Bağlar",
        "District": "Alipınar",
        "CountryId": 1,
        "CityId": 21,
        "CountyId": 2040,
        "DistrictId": 20905,
        "StoreCount": 94,
        "CategoryCount": 22,
        "ATMCount": 12
    },
    {
        "Id": 1138,
        "Title": "Forum Diyarbakır AVM",
        "Phone": "0412 241 60 00",
        "Address": "Fabrika mh Elazığ cd Diyarbakır",
        "Logo": "https://images.endeksa.com/images/shopping-centers/logos/forum-diyarbakır-avm.jpg",
        "Photo": "https://images.endeksa.com/images/shopping-centers/photos/forum-diyarbakır-avm.jpg",
        "Lat": "37.95857",
        "Lon": "40.18287",
        "Country": "Türkiye",
        "City": "Diyarbakır",
        "County": "Yenişehir",
        "District": "Fabrika",
        "CountryId": 1,
        "CityId": 21,
        "CountyId": 2043,
        "DistrictId": 20984,
        "StoreCount": 87,
        "CategoryCount": 21,
        "ATMCount": 0
    },
    {
        "Id": 1139,
        "Title": "Ninova Park AVM",
        "Phone": "0412 290 11 11",
        "Address": "Selahattin Eyyübi Mh Şanlıurfa Yolu Diyarbakır",
        "Logo": "https://images.endeksa.com/images/shopping-centers/logos/ninova-park-avm.jpg",
        "Photo": "https://images.endeksa.com/images/shopping-centers/photos/ninova-park-avm.jpg",
        "Lat": "37.93442",
        "Lon": "40.20251",
        "Country": "Türkiye",
        "City": "Diyarbakır",
        "County": "Bağlar",
        "District": "Selahattin Eyyubi",
        "CountryId": 1,
        "CityId": 21,
        "CountyId": 2040,
        "DistrictId": 20912,
        "StoreCount": 53,
        "CategoryCount": 19,
        "ATMCount": 10
    },
    {
        "Id": 1141,
        "Title": "Bendis AVM",
        "Phone": "",
        "Address": "",
        "Logo": "https://images.endeksa.com/images/shopping-centers/logos/bendis-avm.jpg",
        "Photo": "https://images.endeksa.com/images/shopping-centers/photos/bendis-avm.jpg",
        "Lat": "40.8377842",
        "Lon": "26.6228813",
        "Country": "Türkiye",
        "City": "Edirne",
        "County": "Keşan",
        "District": "Aşağı Zaferiye",
        "CountryId": 1,
        "CityId": 22,
        "CountyId": 1464,
        "DistrictId": 21220,
        "StoreCount": 25,
        "CategoryCount": 10,
        "ATMCount": 0
    },
    {
        "Id": 1142,
        "Title": "Erasta Edirne AVM",
        "Phone": "0284 213 30 65",
        "Address": "Abdurrahman Mh TalatPaşa Cd Merkez Edirne",
        "Logo": "https://images.endeksa.com/images/shopping-centers/logos/erasta-edirne-avm.jpg",
        "Photo": "https://images.endeksa.com/images/shopping-centers/photos/erasta-edirne-avm.jpg",
        "Lat": "41.66679",
        "Lon": "26.57133",
        "Country": "Türkiye",
        "City": "Edirne",
        "County": "Merkez",
        "District": "Abdurrahman",
        "CountryId": 1,
        "CityId": 22,
        "CountyId": 1295,
        "DistrictId": 21158,
        "StoreCount": 88,
        "CategoryCount": 20,
        "ATMCount": 0
    },
    {
        "Id": 1143,
        "Title": "Kipa Edirne AVM",
        "Phone": "0284 715 43 90",
        "Address": "Edirne Merkez İstasyon Mh Talatpaşa Cd Edirne",
        "Logo": "https://images.endeksa.com/images/shopping-centers/logos/kipa-edirne-avm.jpg",
        "Photo": "https://images.endeksa.com/images/shopping-centers/photos/kipa-edirne-avm.jpg",
        "Lat": "41.65543",
        "Lon": "26.58643",
        "Country": "Türkiye",
        "City": "Edirne",
        "County": "Merkez",
        "District": "İstasyon",
        "CountryId": 1,
        "CityId": 22,
        "CountyId": 1295,
        "DistrictId": 21164,
        "StoreCount": 5,
        "CategoryCount": 5,
        "ATMCount": 3
    },
    {
        "Id": 1144,
        "Title": "Margi AVM /Outlet",
        "Phone": "0284 236 64 00",
        "Address": "Atatürk Bulv Margi Outlet Edirne",
        "Logo": "https://images.endeksa.com/images/shopping-centers/logos/margi-avm--outlet.jpg",
        "Photo": "https://images.endeksa.com/images/shopping-centers/photos/margi-avm--outlet.jpg",
        "Lat": "41.66164",
        "Lon": "26.58095",
        "Country": "Türkiye",
        "City": "Edirne",
        "County": "Merkez",
        "District": "1.Murat",
        "CountryId": 1,
        "CityId": 22,
        "CountyId": 1295,
        "DistrictId": 21181,
        "StoreCount": 39,
        "CategoryCount": 18,
        "ATMCount": 3
    },
    {
        "Id": 1145,
        "Title": "Park 23 AVM",
        "Phone": "0424 247 40 00",
        "Address": "Malatya Cd. No:70 ELAZIĞ",
        "Logo": "https://images.endeksa.com/images/shopping-centers/logos/park-23-avm.jpg",
        "Photo": "https://images.endeksa.com/images/shopping-centers/photos/park-23-avm.jpg",
        "Lat": "38.66551",
        "Lon": "39.17491",
        "Country": "Türkiye",
        "City": "Elazığ",
        "County": "Merkez",
        "District": "Cumhuriyet",
        "CountryId": 1,
        "CityId": 23,
        "CountyId": 1298,
        "DistrictId": 21296,
        "StoreCount": 44,
        "CategoryCount": 15,
        "ATMCount": 0
    },
    {
        "Id": 1146,
        "Title": "ErzincanPark AVM",
        "Phone": "0446 228 55 50",
        "Address": "Mimar Sinan Mh Halitpaşa Cd ERZİNCAN",
        "Logo": "https://images.endeksa.com/images/shopping-centers/logos/erzincanpark-avm.jpg",
        "Photo": "https://images.endeksa.com/images/shopping-centers/photos/erzincanpark-avm.jpg",
        "Lat": "39.74784",
        "Lon": "39.46764",
        "Country": "Türkiye",
        "City": "Erzincan",
        "County": "Merkez",
        "District": "Mimar Sinan",
        "CountryId": 1,
        "CityId": 24,
        "CountyId": 1318,
        "DistrictId": 21462,
        "StoreCount": 33,
        "CategoryCount": 14,
        "ATMCount": 0
    },
    {
        "Id": 1147,
        "Title": "Forum Erzurum AVM",
        "Phone": "0442 232 70 00",
        "Address": "Solakzade Mh YavuzSultanSelim Bulv Yenişehir/Erzurum",
        "Logo": "https://images.endeksa.com/images/shopping-centers/logos/forum-erzurum-avm.jpg",
        "Photo": "https://images.endeksa.com/images/shopping-centers/photos/forum-erzurum-avm.jpg",
        "Lat": "39.89011",
        "Lon": "41.26629",
        "Country": "Türkiye",
        "City": "Erzurum",
        "County": "Palandöken",
        "District": "Müftü Solakzade",
        "CountryId": 1,
        "CityId": 25,
        "CountyId": 2044,
        "DistrictId": 21721,
        "StoreCount": 63,
        "CategoryCount": 17,
        "ATMCount": 6
    },
    {
        "Id": 1148,
        "Title": "Mng Erzurum AVM",
        "Phone": "0442 502 38 84",
        "Address": "Terminal Caddesi Erzurum",
        "Logo": "https://images.endeksa.com/images/shopping-centers/logos/mng-erzurum-avm.jpg",
        "Photo": "https://images.endeksa.com/images/shopping-centers/photos/mng-erzurum-avm.jpg",
        "Lat": "39.90854",
        "Lon": "41.25441",
        "Country": "Türkiye",
        "City": "Erzurum",
        "County": "Yakutiye",
        "District": "Lalapaşa",
        "CountryId": 1,
        "CityId": 25,
        "CountyId": 2045,
        "DistrictId": 21686,
        "StoreCount": 95,
        "CategoryCount": 19,
        "ATMCount": 0
    },
    {
        "Id": 1149,
        "Title": "Palerium AVM Erzurum",
        "Phone": "0442 234 13 33",
        "Address": "Cumhuriyet caddesi, Erzurum",
        "Logo": "https://images.endeksa.com/images/shopping-centers/logos/palerium-avm-erzurum.jpg",
        "Photo": "https://images.endeksa.com/images/shopping-centers/photos/palerium-avm-erzurum.jpg",
        "Lat": "39.90610",
        "Lon": "41.27492",
        "Country": "Türkiye",
        "City": "Erzurum",
        "County": "Yakutiye",
        "District": "Rabia Ana",
        "CountryId": 1,
        "CityId": 25,
        "CountyId": 2045,
        "DistrictId": 21684,
        "StoreCount": 26,
        "CategoryCount": 13,
        "ATMCount": 5
    },
    {
        "Id": 1150,
        "Title": "Espark AVM",
        "Phone": "0222 333 03 30",
        "Address": "Eskibağlar Mh Üniversite Cd Eskişehir ",
        "Logo": "https://images.endeksa.com/images/shopping-centers/logos/espark-avm.jpg",
        "Photo": "https://images.endeksa.com/images/shopping-centers/photos/espark-avm.jpg",
        "Lat": "39.78310",
        "Lon": "30.51098",
        "Country": "Türkiye",
        "City": "Eskişehir",
        "County": "Tepebaşı",
        "District": "Eskibağlar",
        "CountryId": 1,
        "CityId": 26,
        "CountyId": 2047,
        "DistrictId": 30197,
        "StoreCount": 114,
        "CategoryCount": 20,
        "ATMCount": 7
    },
    {
        "Id": 1151,
        "Title": "Özdilek AVM Eskişehir",
        "Phone": "0222 330 59 69",
        "Address": "Hoşnudiye Mh Doğruer Sk Tepebaşı ESKİŞEHİR ",
        "Logo": "https://images.endeksa.com/images/shopping-centers/logos/özdilek-avm-eskişehir.jpg",
        "Photo": "https://images.endeksa.com/images/shopping-centers/photos/özdilek-avm-eskişehir.jpg",
        "Lat": "39.78409",
        "Lon": "30.49731",
        "Country": "Türkiye",
        "City": "Eskişehir",
        "County": "Tepebaşı",
        "District": "Hoşnudiye",
        "CountryId": 1,
        "CityId": 26,
        "CountyId": 2047,
        "DistrictId": 30204,
        "StoreCount": 9,
        "CategoryCount": 5,
        "ATMCount": 7
    },
    {
        "Id": 1152,
        "Title": "Vega Outlet",
        "Phone": "0222 310 50 00",
        "Address": "Çamlıca Mh Gülperi SkTepebaşı Eskişehir",
        "Logo": "https://images.endeksa.com/images/shopping-centers/logos/vega-outlet.jpg",
        "Photo": "https://images.endeksa.com/images/shopping-centers/photos/vega-outlet.jpg",
        "Lat": "39.78094",
        "Lon": "30.47897",
        "Country": "Türkiye",
        "City": "Eskişehir",
        "County": "Tepebaşı",
        "District": "Çamlıca",
        "CountryId": 1,
        "CityId": 26,
        "CountyId": 2047,
        "DistrictId": 30194,
        "StoreCount": 45,
        "CategoryCount": 18,
        "ATMCount": 6
    },
    {
        "Id": 1153,
        "Title": "Forum Gaziantep AVM",
        "Phone": "0342 211 85 55",
        "Address": "İstasyon cd Yaprak Mh Şehitkamil Gaziantep",
        "Logo": "https://images.endeksa.com/images/shopping-centers/logos/forum-gaziantep-avm.jpg",
        "Photo": "https://images.endeksa.com/images/shopping-centers/photos/forum-gaziantep-avm.jpg",
        "Lat": "37.06997",
        "Lon": "37.38006",
        "Country": "Türkiye",
        "City": "Gaziantep",
        "County": "Şehitkamil",
        "District": "Yaprak",
        "CountryId": 1,
        "CityId": 27,
        "CountyId": 1844,
        "DistrictId": 30520,
        "StoreCount": 68,
        "CategoryCount": 20,
        "ATMCount": 8
    },
    {
        "Id": 1154,
        "Title": "M1 Gaziantep AVM",
        "Phone": "",
        "Address": "",
        "Logo": "https://images.endeksa.com/images/shopping-centers/logos/m1-gaziantep-avm.jpg",
        "Photo": "https://images.endeksa.com/images/shopping-centers/photos/m1-gaziantep-avm.jpg",
        "Lat": "37.1054542",
        "Lon": "37.3990378",
        "Country": "Türkiye",
        "City": "Gaziantep",
        "County": "Şehitkamil",
        "District": "Karacaahmet",
        "CountryId": 1,
        "CityId": 27,
        "CountyId": 1844,
        "DistrictId": 30528,
        "StoreCount": 17,
        "CategoryCount": 9,
        "ATMCount": 0
    },
    {
        "Id": 1155,
        "Title": "PrimeMall Gaziantep AVM",
        "Phone": "0342 227 45 45",
        "Address": "Osmangazi Mh Necmettin Erbakan Cd Şehitkamil Gaziantep",
        "Logo": "https://images.endeksa.com/images/shopping-centers/logos/primemall-gaziantep-avm.jpg",
        "Photo": "https://images.endeksa.com/images/shopping-centers/photos/primemall-gaziantep-avm.jpg",
        "Lat": "37.05208",
        "Lon": "37.31974",
        "Country": "Türkiye",
        "City": "Gaziantep",
        "County": "Şehitkamil",
        "District": "Osmangazi",
        "CountryId": 1,
        "CityId": 27,
        "CountyId": 1844,
        "DistrictId": 30534,
        "StoreCount": 110,
        "CategoryCount": 21,
        "ATMCount": 8
    },
    {
        "Id": 1156,
        "Title": "Sanko Park AVM",
        "Phone": "0342 336 60 66",
        "Address": "Sarıgüllük Mh Rafet İşitmen Cd Şehitkamil GAZİANTEP",
        "Logo": "https://images.endeksa.com/images/shopping-centers/logos/sanko-park-avm.jpg",
        "Photo": "https://images.endeksa.com/images/shopping-centers/photos/sanko-park-avm.jpg",
        "Lat": "37.06302",
        "Lon": "37.36059",
        "Country": "Türkiye",
        "City": "Gaziantep",
        "County": "Şehitkamil",
        "District": "Sarıgüllük",
        "CountryId": 1,
        "CityId": 27,
        "CountyId": 1844,
        "DistrictId": 30515,
        "StoreCount": 109,
        "CategoryCount": 21,
        "ATMCount": 7
    },
    {
        "Id": 1157,
        "Title": "Palladium AVM Antakya",
        "Phone": "0326 290 00 01",
        "Address": "Haraparası mah. Yavuz Sultan Selim Cad. Antakya/Hatay",
        "Logo": "https://images.endeksa.com/images/shopping-centers/logos/palladium-avm-antakya.jpg",
        "Photo": "https://images.endeksa.com/images/shopping-centers/photos/palladium-avm-antakya.jpg",
        "Lat": "36.20899",
        "Lon": "36.16391",
        "Country": "Türkiye",
        "City": "Hatay",
        "County": "Antakya",
        "District": "Haraparası",
        "CountryId": 1,
        "CityId": 31,
        "CountyId": 2080,
        "DistrictId": 31069,
        "StoreCount": 81,
        "CategoryCount": 19,
        "ATMCount": 6
    },
    {
        "Id": 1158,
        "Title": "Park Forbes AVM",
        "Phone": "0326 502 25 25",
        "Address": "Atatürk Bulvarı No:97 İskenderun Hatay",
        "Logo": "https://images.endeksa.com/images/shopping-centers/logos/park-forbes-avm.jpg",
        "Photo": "https://images.endeksa.com/images/shopping-centers/photos/park-forbes-avm.jpg",
        "Lat": "36.59321",
        "Lon": "36.15876",
        "Country": "Türkiye",
        "City": "Hatay",
        "County": "İskenderun",
        "District": "Süleymaniye",
        "CountryId": 1,
        "CityId": 31,
        "CountyId": 1413,
        "DistrictId": 31248,
        "StoreCount": 49,
        "CategoryCount": 17,
        "ATMCount": 7
    },
    {
        "Id": 1159,
        "Title": "PrimeMall Antakya AVM",
        "Phone": "0326 290 1111",
        "Address": "Saraykent Mh Şükrü Balcı Cd Antakya Hatay",
        "Logo": "https://images.endeksa.com/images/shopping-centers/logos/primemall-antakya-avm.jpg",
        "Photo": "https://images.endeksa.com/images/shopping-centers/photos/primemall-antakya-avm.jpg",
        "Lat": "36.22915",
        "Lon": "36.13694",
        "Country": "Türkiye",
        "City": "Hatay",
        "County": "Antakya",
        "District": "Aksaray",
        "CountryId": 1,
        "CityId": 31,
        "CountyId": 2080,
        "DistrictId": 31051,
        "StoreCount": 58,
        "CategoryCount": 17,
        "ATMCount": 8
    },
    {
        "Id": 1160,
        "Title": "PrimeMall İskenderun AVM",
        "Phone": "0326 619 20 10",
        "Address": "Numune Mh Eyüp Sultan Cd İskenderun",
        "Logo": "https://images.endeksa.com/images/shopping-centers/logos/primemall-iskenderun-avm.jpg",
        "Photo": "https://images.endeksa.com/images/shopping-centers/photos/primemall-iskenderun-avm.jpg",
        "Lat": "36.57501",
        "Lon": "36.16241",
        "Country": "Türkiye",
        "City": "Hatay",
        "County": "İskenderun",
        "District": "Numune",
        "CountryId": 1,
        "CityId": 31,
        "CountyId": 1413,
        "DistrictId": 31243,
        "StoreCount": 77,
        "CategoryCount": 18,
        "ATMCount": 8
    },
    {
        "Id": 1161,
        "Title": "iyaşpark AVM",
        "Phone": "0246 227 91 91",
        "Address": "Süleyman Demirel Bulv OtogarYanı ISPARTA",
        "Logo": "https://images.endeksa.com/images/shopping-centers/logos/iyaşpark-avm.jpg",
        "Photo": "https://images.endeksa.com/images/shopping-centers/photos/iyaşpark-avm.jpg",
        "Lat": "37.78208",
        "Lon": "30.54436",
        "Country": "Türkiye",
        "City": "Isparta",
        "County": "Merkez",
        "District": "Bahçelievler",
        "CountryId": 1,
        "CityId": 32,
        "CountyId": 1401,
        "DistrictId": 31373,
        "StoreCount": 64,
        "CategoryCount": 18,
        "ATMCount": 7
    },
    {
        "Id": 1298,
        "Title": "Forum Mersin AVM",
        "Phone": "0324 239 10 70",
        "Address": "Günevler Mh 1 cd No:120/133 Yenişehir Mersin",
        "Logo": "https://images.endeksa.com/images/shopping-centers/logos/forum-mersin-avm.jpg",
        "Photo": "https://images.endeksa.com/images/shopping-centers/photos/forum-mersin-avm.jpg",
        "Lat": "36.78565",
        "Lon": "34.58798",
        "Country": "Türkiye",
        "City": "Mersin",
        "County": "Yenişehir",
        "District": "Güvenevler",
        "CountryId": 1,
        "CityId": 33,
        "CountyId": 2067,
        "DistrictId": 31774,
        "StoreCount": 154,
        "CategoryCount": 22,
        "ATMCount": 10
    },
    {
        "Id": 1299,
        "Title": "PalmCity Mersin AVM",
        "Phone": "0324 329 16 33",
        "Address": "Limonluk Mh Vali Hüseyin Aksoy Cd Yenişehir Mersin",
        "Logo": "https://images.endeksa.com/images/shopping-centers/logos/palmcity-mersin-avm.jpg",
        "Photo": "https://images.endeksa.com/images/shopping-centers/photos/palmcity-mersin-avm.jpg",
        "Lat": "36.80187",
        "Lon": "34.59623",
        "Country": "Türkiye",
        "City": "Mersin",
        "County": "Yenişehir",
        "District": "Limonluk",
        "CountryId": 1,
        "CityId": 33,
        "CountyId": 2067,
        "DistrictId": 31777,
        "StoreCount": 45,
        "CategoryCount": 17,
        "ATMCount": 5
    },
    {
        "Id": 1300,
        "Title": "Sayapark AVM",
        "Phone": "",
        "Address": "",
        "Logo": "https://images.endeksa.com/images/shopping-centers/logos/sayapark-avm.jpg",
        "Photo": "https://images.endeksa.com/images/shopping-centers/photos/sayapark-avm.jpg",
        "Lat": "36.7681146",
        "Lon": "34.5525455",
        "Country": "Türkiye",
        "City": "Mersin",
        "County": "Yenişehir",
        "District": "Akkent",
        "CountryId": 1,
        "CityId": 33,
        "CountyId": 2067,
        "DistrictId": 31764,
        "StoreCount": 29,
        "CategoryCount": 15,
        "ATMCount": 0
    },
    {
        "Id": 1301,
        "Title": "Tarsus Tarsu AVM",
        "Phone": "0324 614 06 14",
        "Address": "Fevzi Çakmak Mh Adana Blv Tarsus Mersin",
        "Logo": "https://images.endeksa.com/images/shopping-centers/logos/tarsus-tarsu-avm.jpg",
        "Photo": "https://images.endeksa.com/images/shopping-centers/photos/tarsus-tarsu-avm.jpg",
        "Lat": "36.92039",
        "Lon": "34.90516",
        "Country": "Türkiye",
        "City": "Mersin",
        "County": "Tarsus",
        "District": "Fevzi Çakmak",
        "CountryId": 1,
        "CityId": 33,
        "CountyId": 1665,
        "DistrictId": 40083,
        "StoreCount": 45,
        "CategoryCount": 17,
        "ATMCount": 2
    },
    {
        "Id": 1162,
        "Title": "212 AVM /Outlet",
        "Phone": "444 4 212",
        "Address": "Taşocağı Cd Bağcılar istanbul",
        "Logo": "https://images.endeksa.com/images/shopping-centers/logos/212-avm--outlet.jpg",
        "Photo": "https://images.endeksa.com/images/shopping-centers/photos/212-avm--outlet.jpg",
        "Lat": "41.04797",
        "Lon": "28.80934",
        "Country": "Türkiye",
        "City": "İstanbul",
        "County": "Bağcılar",
        "District": "Mahmutbey",
        "CountryId": 1,
        "CityId": 34,
        "CountyId": 2004,
        "DistrictId": 40170,
        "StoreCount": 80,
        "CategoryCount": 19,
        "ATMCount": 10
    },
    {
        "Id": 1163,
        "Title": "Airport AVM /Outlet",
        "Phone": "0212 465 85 75",
        "Address": "Kuleli Mevkii E-5 Üzeri Bakirköy Istanbul",
        "Logo": "https://images.endeksa.com/images/shopping-centers/logos/airport-avm--outlet.jpg",
        "Photo": "https://images.endeksa.com/images/shopping-centers/photos/airport-avm--outlet.jpg",
        "Lat": "40.99206",
        "Lon": "28.83079",
        "Country": "Türkiye",
        "City": "İstanbul",
        "County": "Bakırköy",
        "District": "Ataköy 7 8 9 10. Kısım",
        "CountryId": 1,
        "CityId": 34,
        "CountyId": 1166,
        "DistrictId": 40196,
        "StoreCount": 51,
        "CategoryCount": 17,
        "ATMCount": 7
    },
    {
        "Id": 1164,
        "Title": "Akasya Acıbadem AVM",
        "Phone": "0216 325 03 72",
        "Address": "Çeçen Sk Acıbadem İstanbul",
        "Logo": "https://images.endeksa.com/images/shopping-centers/logos/akasya-acıbadem-avm.jpg",
        "Photo": "https://images.endeksa.com/images/shopping-centers/photos/akasya-acıbadem-avm.jpg",
        "Lat": "41.00070",
        "Lon": "29.05470",
        "Country": "Türkiye",
        "City": "İstanbul",
        "County": "Üsküdar",
        "District": "Acıbadem",
        "CountryId": 1,
        "CityId": 34,
        "CountyId": 1708,
        "DistrictId": 40778,
        "StoreCount": 191,
        "CategoryCount": 23,
        "ATMCount": 11
    },
    {
        "Id": 1165,
        "Title": "Akbatı AVM",
        "Phone": "0212 397 70 70",
        "Address": "Sanayi Mh 1655.Sk (TEM yanı) Bahçeşehir",
        "Logo": "https://images.endeksa.com/images/shopping-centers/logos/akbatı-avm.jpg",
        "Photo": "https://images.endeksa.com/images/shopping-centers/photos/akbatı-avm.jpg",
        "Lat": "41.05624",
        "Lon": "28.66909",
        "Country": "Türkiye",
        "City": "İstanbul",
        "County": "Esenyurt",
        "District": "Koza",
        "CountryId": 1,
        "CityId": 34,
        "CountyId": 2053,
        "DistrictId": 181522,
        "StoreCount": 145,
        "CategoryCount": 21,
        "ATMCount": 8
    },
    {
        "Id": 1166,
        "Title": "Akmerkez AVM /Shopping Mall",
        "Phone": "0212 282 01 70",
        "Address": "Nispetiye Cd Etiler Ulus istanbul",
        "Logo": "https://images.endeksa.com/images/shopping-centers/logos/akmerkez-avm--shopping-mall.jpg",
        "Photo": "https://images.endeksa.com/images/shopping-centers/photos/akmerkez-avm--shopping-mall.jpg",
        "Lat": "41.07712",
        "Lon": "29.02724",
        "Country": "Türkiye",
        "City": "İstanbul",
        "County": "Beşiktaş",
        "District": "Kültür",
        "CountryId": 1,
        "CityId": 34,
        "CountyId": 1183,
        "DistrictId": 40229,
        "StoreCount": 107,
        "CategoryCount": 20,
        "ATMCount": 5
    },
    {
        "Id": 1167,
        "Title": "Akyaka Park AVM",
        "Phone": "0216 632 80 80",
        "Address": "Küçüksu Cd Ümraniye İSTANBUL",
        "Logo": "https://images.endeksa.com/images/shopping-centers/logos/akyaka-park-avm.jpg",
        "Photo": "https://images.endeksa.com/images/shopping-centers/photos/akyaka-park-avm.jpg",
        "Lat": "41.03428",
        "Lon": "29.11094",
        "Country": "Türkiye",
        "City": "İstanbul",
        "County": "Ümraniye",
        "District": "İnkılap",
        "CountryId": 1,
        "CityId": 34,
        "CountyId": 1852,
        "DistrictId": 40737,
        "StoreCount": 66,
        "CategoryCount": 21,
        "ATMCount": 0
    },
    {
        "Id": 1168,
        "Title": "Anatolium Marmara AVM",
        "Phone": "‭0216 504 34 80‬",
        "Address": "Soğanlık Yeni Mh D-100 Kuzey Yanyol Cd Kartal İstanbul",
        "Logo": "https://images.endeksa.com/images/shopping-centers/logos/anatolium-marmara-avm.jpg",
        "Photo": "https://images.endeksa.com/images/shopping-centers/photos/anatolium-marmara-avm.jpg",
        "Lat": "40.91850",
        "Lon": "29.17614",
        "Country": "Türkiye",
        "City": "İstanbul",
        "County": "Kartal",
        "District": "Soğanlık Yeni",
        "CountryId": 1,
        "CityId": 34,
        "CountyId": 1449,
        "DistrictId": 40567,
        "StoreCount": 60,
        "CategoryCount": 18,
        "ATMCount": 2
    },
    {
        "Id": 1169,
        "Title": "Aqua Florya AVM",
        "Phone": "0212 574 59 00",
        "Address": "Şenlikköy Mh Halkalı Cd Florya İstanbul",
        "Logo": "https://images.endeksa.com/images/shopping-centers/logos/aqua-florya-avm.jpg",
        "Photo": "https://images.endeksa.com/images/shopping-centers/photos/aqua-florya-avm.jpg",
        "Lat": "40.96558",
        "Lon": "28.79817",
        "Country": "Türkiye",
        "City": "İstanbul",
        "County": "Bakırköy",
        "District": "Şenlikköy",
        "CountryId": 1,
        "CityId": 34,
        "CountyId": 1166,
        "DistrictId": 40199,
        "StoreCount": 118,
        "CategoryCount": 21,
        "ATMCount": 7
    },
    {
        "Id": 1170,
        "Title": "Arenapark AVM",
        "Phone": "0212 697 47 77",
        "Address": "Atakent Mh Çiçekli Vadi Cd Halkalı",
        "Logo": "https://images.endeksa.com/images/shopping-centers/logos/arenapark-avm.jpg",
        "Photo": "https://images.endeksa.com/images/shopping-centers/photos/arenapark-avm.jpg",
        "Lat": "41.05378",
        "Lon": "28.79135",
        "Country": "Türkiye",
        "City": "İstanbul",
        "County": "Küçükçekmece",
        "District": "Atakent",
        "CountryId": 1,
        "CityId": 34,
        "CountyId": 1823,
        "DistrictId": 40582,
        "StoreCount": 87,
        "CategoryCount": 20,
        "ATMCount": 9
    },
    {
        "Id": 1171,
        "Title": "ArmoniPark AVM /Outlet",
        "Phone": "0212 425 91 00",
        "Address": " TevfikBey Mh Halkalı Cd Sefaköy İstanbul",
        "Logo": "https://images.endeksa.com/images/shopping-centers/logos/armonipark-avm--outlet.jpg",
        "Photo": "https://images.endeksa.com/images/shopping-centers/photos/armonipark-avm--outlet.jpg",
        "Lat": "41.00688",
        "Lon": "28.79732",
        "Country": "Türkiye",
        "City": "İstanbul",
        "County": "Küçükçekmece",
        "District": "Tevfikbey",
        "CountryId": 1,
        "CityId": 34,
        "CountyId": 1823,
        "DistrictId": 40593,
        "StoreCount": 68,
        "CategoryCount": 16,
        "ATMCount": 7
    },
    {
        "Id": 1172,
        "Title": "Astoria AVM",
        "Phone": "0212 215 22 22",
        "Address": "Büyükdere Cd Esentepe İstanbul",
        "Logo": "https://images.endeksa.com/images/shopping-centers/logos/astoria-avm.jpg",
        "Photo": "https://images.endeksa.com/images/shopping-centers/photos/astoria-avm.jpg",
        "Lat": "41.06841",
        "Lon": "29.00588",
        "Country": "Türkiye",
        "City": "İstanbul",
        "County": "Şişli",
        "District": "Esentepe",
        "CountryId": 1,
        "CityId": 34,
        "CountyId": 1663,
        "DistrictId": 40691,
        "StoreCount": 19,
        "CategoryCount": 11,
        "ATMCount": 5
    },
    {
        "Id": 1173,
        "Title": "Ataköy APlus AVM",
        "Phone": "0212 661 75 15",
        "Address": "Adnan Kahveci Bulv 6.Kısım Ataköy Bakırköy",
        "Logo": "https://images.endeksa.com/images/shopping-centers/logos/ataköy-aplus-avm.jpg",
        "Photo": "https://images.endeksa.com/images/shopping-centers/photos/ataköy-aplus-avm.jpg",
        "Lat": "40.97851",
        "Lon": "28.85028",
        "Country": "Türkiye",
        "City": "İstanbul",
        "County": "Bakırköy",
        "District": "Ataköy 2 5 6. Kısım",
        "CountryId": 1,
        "CityId": 34,
        "CountyId": 1166,
        "DistrictId": 40194,
        "StoreCount": 77,
        "CategoryCount": 20,
        "ATMCount": 7
    },
    {
        "Id": 1174,
        "Title": "Atirus AVM",
        "Phone": "0212 883 69 14",
        "Address": "E5 üzeri Büyükçekmece istanbul",
        "Logo": "https://images.endeksa.com/images/shopping-centers/logos/atirus-avm.jpg",
        "Photo": "https://images.endeksa.com/images/shopping-centers/photos/atirus-avm.jpg",
        "Lat": "41.02125",
        "Lon": "28.58380",
        "Country": "Türkiye",
        "City": "İstanbul",
        "County": "Büyükçekmece",
        "District": "Fatih",
        "CountryId": 1,
        "CityId": 34,
        "CountyId": 1782,
        "DistrictId": 40848,
        "StoreCount": 36,
        "CategoryCount": 18,
        "ATMCount": 7
    },
    {
        "Id": 1175,
        "Title": "Atlaspark AVM",
        "Phone": "0216 398 78 88",
        "Address": "Abdurrahmangazi Mh Fatih Bulv Sultanbeyli",
        "Logo": "https://images.endeksa.com/images/shopping-centers/logos/atlaspark-avm.jpg",
        "Photo": "https://images.endeksa.com/images/shopping-centers/photos/atlaspark-avm.jpg",
        "Lat": "40.96923",
        "Lon": "29.25092",
        "Country": "Türkiye",
        "City": "İstanbul",
        "County": "Sultanbeyli",
        "District": "Hasanpaşa",
        "CountryId": 1,
        "CityId": 34,
        "CountyId": 2014,
        "DistrictId": 40948,
        "StoreCount": 66,
        "CategoryCount": 17,
        "ATMCount": 0
    },
    {
        "Id": 1176,
        "Title": "Avlu34 AVM",
        "Phone": "0212 681 02 34",
        "Address": "Arnavutköy Mrkz Mh 23 Nisan Cd, No 1 İstanbul",
        "Logo": "https://images.endeksa.com/images/shopping-centers/logos/avlu34-avm.jpg",
        "Photo": "https://images.endeksa.com/images/shopping-centers/photos/avlu34-avm.jpg",
        "Lat": "41.18334",
        "Lon": "28.73478",
        "Country": "Türkiye",
        "City": "İstanbul",
        "County": "Arnavutköy",
        "District": "Arnavutköy Merkez",
        "CountryId": 1,
        "CityId": 34,
        "CountyId": 2048,
        "DistrictId": 40478,
        "StoreCount": 27,
        "CategoryCount": 13,
        "ATMCount": 0
    },
    {
        "Id": 1177,
        "Title": "Axis İstanbul AVM",
        "Phone": "0212 612 02 32",
        "Address": "Topçular Mh OsmanGazi Cd Bayrampaşa MetroYanı Eyüp İSTANBUL",
        "Logo": "https://images.endeksa.com/images/shopping-centers/logos/axis-istanbul-avm.jpg",
        "Photo": "https://images.endeksa.com/images/shopping-centers/photos/axis-istanbul-avm.jpg",
        "Lat": "41.03600",
        "Lon": "28.92028",
        "Country": "Türkiye",
        "City": "İstanbul",
        "County": "Eyüpsultan",
        "District": "Topçular",
        "CountryId": 1,
        "CityId": 34,
        "CountyId": 1325,
        "DistrictId": 40376,
        "StoreCount": 68,
        "CategoryCount": 19,
        "ATMCount": 7
    },
    {
        "Id": 1178,
        "Title": "Axis Kağıthane AVM",
        "Phone": "0212 295 34 00",
        "Address": "Merkez Mh Cendere Cd Kağıthane İstanbul",
        "Logo": "https://images.endeksa.com/images/shopping-centers/logos/axis-kağıthane-avm.jpg",
        "Photo": "https://images.endeksa.com/images/shopping-centers/photos/axis-kağıthane-avm.jpg",
        "Lat": "41.08639",
        "Lon": "28.98202",
        "Country": "Türkiye",
        "City": "İstanbul",
        "County": "Kağıthane",
        "District": "Merkez",
        "CountryId": 1,
        "CityId": 34,
        "CountyId": 1810,
        "DistrictId": 40543,
        "StoreCount": 53,
        "CategoryCount": 17,
        "ATMCount": 4
    },
    {
        "Id": 1179,
        "Title": "Beylikdüzü Migros AVM",
        "Phone": "0212 852 00 01",
        "Address": "E5 Üzeri Beylikdüzü İstanbul",
        "Logo": "https://images.endeksa.com/images/shopping-centers/logos/beylikdüzü-migros-avm.jpg",
        "Photo": "https://images.endeksa.com/images/shopping-centers/photos/beylikdüzü-migros-avm.jpg",
        "Lat": "41.00695",
        "Lon": "28.65755",
        "Country": "Türkiye",
        "City": "İstanbul",
        "County": "Beylikdüzü",
        "District": "Barış",
        "CountryId": 1,
        "CityId": 34,
        "CountyId": 2051,
        "DistrictId": 40875,
        "StoreCount": 89,
        "CategoryCount": 21,
        "ATMCount": 8
    },
    {
        "Id": 1180,
        "Title": "Biz Cevahir Haliç AVM",
        "Phone": "0212 601 44 00",
        "Address": "Vardar Bulvarı Alibeyköy Eyüp istanbul",
        "Logo": "https://images.endeksa.com/images/shopping-centers/logos/biz-cevahir-haliç-avm.jpg",
        "Photo": "https://images.endeksa.com/images/shopping-centers/photos/biz-cevahir-haliç-avm.jpg",
        "Lat": "41.07585",
        "Lon": "28.94511",
        "Country": "Türkiye",
        "City": "İstanbul",
        "County": "Eyüpsultan",
        "District": "Alibeyköy",
        "CountryId": 1,
        "CityId": 34,
        "CountyId": 1325,
        "DistrictId": 40359,
        "StoreCount": 20,
        "CategoryCount": 13,
        "ATMCount": 3
    },
    {
        "Id": 1181,
        "Title": "Brandium AVM",
        "Phone": "0216 574 33 33",
        "Address": "Dudullu cd Ataşehir İstanbul",
        "Logo": "https://images.endeksa.com/images/shopping-centers/logos/brandium-avm.jpg",
        "Photo": "https://images.endeksa.com/images/shopping-centers/photos/brandium-avm.jpg",
        "Lat": "40.98248",
        "Lon": "29.13283",
        "Country": "Türkiye",
        "City": "İstanbul",
        "County": "Ataşehir",
        "District": "Küçükbakkalköy",
        "CountryId": 1,
        "CityId": 34,
        "CountyId": 2049,
        "DistrictId": 40531,
        "StoreCount": 112,
        "CategoryCount": 22,
        "ATMCount": 11
    },
    {
        "Id": 1182,
        "Title": "Buyaka AVM",
        "Phone": "0216 290 75 10",
        "Address": "FSM Mh Balkan cd Ümraniye İstanbul",
        "Logo": "https://images.endeksa.com/images/shopping-centers/logos/buyaka-avm.jpg",
        "Photo": "https://images.endeksa.com/images/shopping-centers/photos/buyaka-avm.jpg",
        "Lat": "41.02630",
        "Lon": "29.12644",
        "Country": "Türkiye",
        "City": "İstanbul",
        "County": "Ümraniye",
        "District": "Fatih Sultan Mehmet",
        "CountryId": 1,
        "CityId": 34,
        "CountyId": 1852,
        "DistrictId": 98693,
        "StoreCount": 123,
        "CategoryCount": 22,
        "ATMCount": 11
    },
    {
        "Id": 1183,
        "Title": "Canpark AVM",
        "Phone": "444 55 82",
        "Address": "Yamanevler MAH. Alemdağ CAD. No:169 Ümraniye İstanbul",
        "Logo": "https://images.endeksa.com/images/shopping-centers/logos/canpark-avm.jpg",
        "Photo": "https://images.endeksa.com/images/shopping-centers/photos/canpark-avm.jpg",
        "Lat": "41.02501",
        "Lon": "29.10617",
        "Country": "Türkiye",
        "City": "İstanbul",
        "County": "Ümraniye",
        "District": "Yamanevler",
        "CountryId": 1,
        "CityId": 34,
        "CountyId": 1852,
        "DistrictId": 98708,
        "StoreCount": 97,
        "CategoryCount": 22,
        "ATMCount": 6
    },
    {
        "Id": 1184,
        "Title": "Capacity AVM",
        "Phone": "444 9 272",
        "Address": "İstanbul Caddesi Bakırköy",
        "Logo": "https://images.endeksa.com/images/shopping-centers/logos/capacity-avm.jpg",
        "Photo": "https://images.endeksa.com/images/shopping-centers/photos/capacity-avm.jpg",
        "Lat": "40.97755",
        "Lon": "28.87149",
        "Country": "Türkiye",
        "City": "İstanbul",
        "County": "Bakırköy",
        "District": "Ataköy 1. Kısım",
        "CountryId": 1,
        "CityId": 34,
        "CountyId": 1166,
        "DistrictId": 40202,
        "StoreCount": 144,
        "CategoryCount": 20,
        "ATMCount": 10
    },
    {
        "Id": 1185,
        "Title": "Capitol AVM",
        "Phone": "0216 554 77 77",
        "Address": "Mahir iz Cd Altunizade İstanbul",
        "Logo": "https://images.endeksa.com/images/shopping-centers/logos/capitol-avm.jpg",
        "Photo": "https://images.endeksa.com/images/shopping-centers/photos/capitol-avm.jpg",
        "Lat": "41.02100",
        "Lon": "29.03955",
        "Country": "Türkiye",
        "City": "İstanbul",
        "County": "Üsküdar",
        "District": "Altunizade",
        "CountryId": 1,
        "CityId": 34,
        "CountyId": 1708,
        "DistrictId": 40781,
        "StoreCount": 110,
        "CategoryCount": 22,
        "ATMCount": 10
    },
    {
        "Id": 1186,
        "Title": "Carousel AVM",
        "Phone": "0212 570 84 34",
        "Address": "Zeytinlik Mh Fişekhane cd No:5 BAKIRKÖY İSTANBUL",
        "Logo": "https://images.endeksa.com/images/shopping-centers/logos/carousel-avm.jpg",
        "Photo": "https://images.endeksa.com/images/shopping-centers/photos/carousel-avm.jpg",
        "Lat": "40.97792",
        "Lon": "28.87330",
        "Country": "Türkiye",
        "City": "İstanbul",
        "County": "Bakırköy",
        "District": "Zeytinlik",
        "CountryId": 1,
        "CityId": 34,
        "CountyId": 1166,
        "DistrictId": 40193,
        "StoreCount": 70,
        "CategoryCount": 20,
        "ATMCount": 5
    },
    {
        "Id": 1187,
        "Title": "Cevahir İstanbul AVM /Shopping Mall",
        "Phone": "0212 368 69 00",
        "Address": "Büyükdere Cd Şişli /İstanbul",
        "Logo": "https://images.endeksa.com/images/shopping-centers/logos/cevahir-istanbul-avm--shopping-mall.jpg",
        "Photo": "https://images.endeksa.com/images/shopping-centers/photos/cevahir-istanbul-avm--shopping-mall.jpg",
        "Lat": "41.06301",
        "Lon": "28.99283",
        "Country": "Türkiye",
        "City": "İstanbul",
        "County": "Şişli",
        "District": "19 Mayıs",
        "CountryId": 1,
        "CityId": 34,
        "CountyId": 1663,
        "DistrictId": 40685,
        "StoreCount": 190,
        "CategoryCount": 21,
        "ATMCount": 11
    },
    {
        "Id": 1188,
        "Title": "City Center Outlet",
        "Phone": "0212 699 40 29",
        "Address": "Adile naşit bulv. no:1 Esenyurt istanbul",
        "Logo": "https://images.endeksa.com/images/shopping-centers/logos/city-center-outlet.jpg",
        "Photo": "https://images.endeksa.com/images/shopping-centers/photos/city-center-outlet.jpg",
        "Lat": "41.01978",
        "Lon": "28.68744",
        "Country": "Türkiye",
        "City": "İstanbul",
        "County": "Esenyurt",
        "District": "Zafer",
        "CountryId": 1,
        "CityId": 34,
        "CountyId": 2053,
        "DistrictId": 181500,
        "StoreCount": 47,
        "CategoryCount": 14,
        "ATMCount": 0
    },
    {
        "Id": 1189,
        "Title": "City’s Nişantaşı AVM",
        "Phone": "0212 373 33 33",
        "Address": "Vali konağı cd Nişantaşı istanbul",
        "Logo": "https://images.endeksa.com/images/shopping-centers/logos/city’s-nişantaşı-avm.jpg",
        "Photo": "https://images.endeksa.com/images/shopping-centers/photos/city’s-nişantaşı-avm.jpg",
        "Lat": "41.05352",
        "Lon": "28.99339",
        "Country": "Türkiye",
        "City": "İstanbul",
        "County": "Şişli",
        "District": "Meşrutiyet",
        "CountryId": 1,
        "CityId": 34,
        "CountyId": 1663,
        "DistrictId": 40707,
        "StoreCount": 80,
        "CategoryCount": 19,
        "ATMCount": 8
    },
    {
        "Id": 1190,
        "Title": "Demiroren İstiklal AVM",
        "Phone": "0212 249 99 99",
        "Address": "istiklal cd. no 54 istanbul",
        "Logo": "https://images.endeksa.com/images/shopping-centers/logos/demiroren-istiklal-avm.jpg",
        "Photo": "https://images.endeksa.com/images/shopping-centers/photos/demiroren-istiklal-avm.jpg",
        "Lat": "41.03466",
        "Lon": "28.97984",
        "Country": "Türkiye",
        "City": "İstanbul",
        "County": "Beyoğlu",
        "District": "Hüseyinağa",
        "CountryId": 1,
        "CityId": 34,
        "CountyId": 1186,
        "DistrictId": 40272,
        "StoreCount": 19,
        "CategoryCount": 11,
        "ATMCount": 4
    },
    {
        "Id": 1191,
        "Title": "Deposite Outlet Mall",
        "Phone": "‭0212 671 67 30‬",
        "Address": "Atatürk Bulvarı İkitelli",
        "Logo": "https://images.endeksa.com/images/shopping-centers/logos/deposite-outlet-mall.jpg",
        "Photo": "https://images.endeksa.com/images/shopping-centers/photos/deposite-outlet-mall.jpg",
        "Lat": "41.07143",
        "Lon": "28.81006",
        "Country": "Türkiye",
        "City": "İstanbul",
        "County": "Başakşehir",
        "District": "İkitelli Osb",
        "CountryId": 1,
        "CityId": 34,
        "CountyId": 2050,
        "DistrictId": 139666,
        "StoreCount": 27,
        "CategoryCount": 15,
        "ATMCount": 3
    },
    {
        "Id": 1192,
        "Title": "Emaar AVM /Shopping Mall",
        "Phone": "0850 290 80 90",
        "Address": "Libadiye Cd No:81 Çamlıca Üsküdar",
        "Logo": "https://images.endeksa.com/images/shopping-centers/logos/emaar-avm--shopping-mall.jpg",
        "Photo": "https://images.endeksa.com/images/shopping-centers/photos/emaar-avm--shopping-mall.jpg",
        "Lat": "41.00234",
        "Lon": "29.06942",
        "Country": "Türkiye",
        "City": "İstanbul",
        "County": "Üsküdar",
        "District": "Ünalan",
        "CountryId": 1,
        "CityId": 34,
        "CountyId": 1708,
        "DistrictId": 40827,
        "StoreCount": 175,
        "CategoryCount": 23,
        "ATMCount": 2
    },
    {
        "Id": 1193,
        "Title": "Flyinn AVM",
        "Phone": "0212 573 75 75",
        "Address": "Harman Sk No 48 Florya istanbul",
        "Logo": "https://images.endeksa.com/images/shopping-centers/logos/flyinn-avm.jpg",
        "Photo": "https://images.endeksa.com/images/shopping-centers/photos/flyinn-avm.jpg",
        "Lat": "40.97301",
        "Lon": "28.80440",
        "Country": "Türkiye",
        "City": "İstanbul",
        "County": "Bakırköy",
        "District": "Şenlikköy",
        "CountryId": 1,
        "CityId": 34,
        "CountyId": 1166,
        "DistrictId": 40199,
        "StoreCount": 41,
        "CategoryCount": 15,
        "ATMCount": 7
    },
    {
        "Id": 1194,
        "Title": "Forum İstanbul AVM",
        "Phone": "0212 443 13 50",
        "Address": "Kocatepe Mh Paşa Cd Bayrampaşa İstanbul",
        "Logo": "https://images.endeksa.com/images/shopping-centers/logos/forum-istanbul-avm.jpg",
        "Photo": "https://images.endeksa.com/images/shopping-centers/photos/forum-istanbul-avm.jpg",
        "Lat": "41.04601",
        "Lon": "28.89711",
        "Country": "Türkiye",
        "City": "İstanbul",
        "County": "Bayrampaşa",
        "District": "Kocatepe",
        "CountryId": 1,
        "CityId": 34,
        "CountyId": 1886,
        "DistrictId": 40212,
        "StoreCount": 196,
        "CategoryCount": 23,
        "ATMCount": 10
    },
    {
        "Id": 1195,
        "Title": "Galataport İstanbul",
        "Phone": "",
        "Address": "",
        "Logo": "https://images.endeksa.com/images/shopping-centers/logos/galataport-istanbul.jpg",
        "Photo": "https://images.endeksa.com/images/shopping-centers/photos/galataport-istanbul.jpg",
        "Lat": "41.0248926",
        "Lon": "28.9810612",
        "Country": "Türkiye",
        "City": "İstanbul",
        "County": "Beyoğlu",
        "District": "Kemankeş Karamustafapaşa",
        "CountryId": 1,
        "CityId": 34,
        "CountyId": 1186,
        "DistrictId": 40297,
        "StoreCount": 0,
        "CategoryCount": 0,
        "ATMCount": 0
    },
    {
        "Id": 1196,
        "Title": "Galleria Ataköy AVM",
        "Phone": "0212 559 95 60",
        "Address": "Sahilyolu Üzeri Ataköy İstanbul",
        "Logo": "https://images.endeksa.com/images/shopping-centers/logos/galleria-ataköy-avm.jpg",
        "Photo": "https://images.endeksa.com/images/shopping-centers/photos/galleria-ataköy-avm.jpg",
        "Lat": "40.97396",
        "Lon": "28.86884",
        "Country": "Türkiye",
        "City": "İstanbul",
        "County": "Bakırköy",
        "District": "Ataköy 1. Kısım",
        "CountryId": 1,
        "CityId": 34,
        "CountyId": 1166,
        "DistrictId": 40202,
        "StoreCount": 58,
        "CategoryCount": 20,
        "ATMCount": 8
    },
    {
        "Id": 1197,
        "Title": "Güneşli Park AVM",
        "Phone": "0212 550 5000",
        "Address": "Evren Mh Koçman Cd Güneşli İstanbul",
        "Logo": "https://images.endeksa.com/images/shopping-centers/logos/güneşli-park-avm.jpg",
        "Photo": "https://images.endeksa.com/images/shopping-centers/photos/güneşli-park-avm.jpg",
        "Lat": "41.03237",
        "Lon": "28.82429",
        "Country": "Türkiye",
        "City": "İstanbul",
        "County": "Bağcılar",
        "District": "Güneşli",
        "CountryId": 1,
        "CityId": 34,
        "CountyId": 2004,
        "DistrictId": 40168,
        "StoreCount": 15,
        "CategoryCount": 9,
        "ATMCount": 2
    },
    {
        "Id": 1198,
        "Title": "Hilltown AVM Küçükyalı",
        "Phone": "",
        "Address": "Kaptan Rıfat Sk Küçükyalı İstanbul",
        "Logo": "https://images.endeksa.com/images/shopping-centers/logos/hilltown-avm-küçükyalı.jpg",
        "Photo": "https://images.endeksa.com/images/shopping-centers/photos/hilltown-avm-küçükyalı.jpg",
        "Lat": "40.95229",
        "Lon": "29.12178",
        "Country": "Türkiye",
        "City": "İstanbul",
        "County": "Maltepe",
        "District": "Aydınevler",
        "CountryId": 1,
        "CityId": 34,
        "CountyId": 2012,
        "DistrictId": 40617,
        "StoreCount": 154,
        "CategoryCount": 22,
        "ATMCount": 12
    },
    {
        "Id": 1199,
        "Title": "Historia AVM",
        "Phone": "0212 532 02 02",
        "Address": "Adnan Menderes Bulv Fatih İstanbul",
        "Logo": "https://images.endeksa.com/images/shopping-centers/logos/historia-avm.jpg",
        "Photo": "https://images.endeksa.com/images/shopping-centers/photos/historia-avm.jpg",
        "Lat": "41.01427",
        "Lon": "28.94536",
        "Country": "Türkiye",
        "City": "İstanbul",
        "County": "Fatih",
        "District": "İskenderpaşa",
        "CountryId": 1,
        "CityId": 34,
        "CountyId": 1327,
        "DistrictId": 40397,
        "StoreCount": 66,
        "CategoryCount": 17,
        "ATMCount": 9
    },
    {
        "Id": 1200,
        "Title": "Home City AVM Pendik",
        "Phone": "",
        "Address": "Sanayi Mh. 34906 Pendik İstanbul",
        "Logo": "https://images.endeksa.com/images/shopping-centers/logos/home-city-avm-pendik.jpg",
        "Photo": "https://images.endeksa.com/images/shopping-centers/photos/home-city-avm-pendik.jpg",
        "Lat": "40.88778",
        "Lon": "29.32472",
        "Country": "Türkiye",
        "City": "İstanbul",
        "County": "Pendik",
        "District": "Sanayi",
        "CountryId": 1,
        "CityId": 34,
        "CountyId": 1835,
        "DistrictId": 40651,
        "StoreCount": 14,
        "CategoryCount": 6,
        "ATMCount": 0
    },
    {
        "Id": 1201,
        "Title": "İsfanbul AVM Temapark /Shopping Center",
        "Phone": "0850 210 85 63",
        "Address": "Yeşilpınar Mh Girne Cd Eyüp istanbul",
        "Logo": "https://images.endeksa.com/images/shopping-centers/logos/isfanbul-avm-temapark--shopping-center.jpg",
        "Photo": "https://images.endeksa.com/images/shopping-centers/photos/isfanbul-avm-temapark--shopping-center.jpg",
        "Lat": "41.07075",
        "Lon": "28.91742",
        "Country": "Türkiye",
        "City": "İstanbul",
        "County": "Eyüpsultan",
        "District": "Yeşilpınar",
        "CountryId": 1,
        "CityId": 34,
        "CountyId": 1325,
        "DistrictId": 40378,
        "StoreCount": 111,
        "CategoryCount": 22,
        "ATMCount": 11
    },
    {
        "Id": 1202,
        "Title": "İstinye Park AVM",
        "Phone": "0212 345 55 55",
        "Address": "İstinye Bayırı Cd Sarıyer İstanbul",
        "Logo": "https://images.endeksa.com/images/shopping-centers/logos/istinye-park-avm.jpg",
        "Photo": "https://images.endeksa.com/images/shopping-centers/photos/istinye-park-avm.jpg",
        "Lat": "41.11035",
        "Lon": "29.03240",
        "Country": "Türkiye",
        "City": "İstanbul",
        "County": "Sarıyer",
        "District": "Pınar",
        "CountryId": 1,
        "CityId": 34,
        "CountyId": 1604,
        "DistrictId": 40672,
        "StoreCount": 195,
        "CategoryCount": 22,
        "ATMCount": 11
    },
    {
        "Id": 1203,
        "Title": "İstMarina Kartal AVM",
        "Phone": "0216 586 51 51",
        "Address": "Sahil Yolu Kordonboyu Mh Ankara Cd Kartal",
        "Logo": "https://images.endeksa.com/images/shopping-centers/logos/istmarina-kartal-avm.jpg",
        "Photo": "https://images.endeksa.com/images/shopping-centers/photos/istmarina-kartal-avm.jpg",
        "Lat": "40.88465",
        "Lon": "29.20641",
        "Country": "Türkiye",
        "City": "İstanbul",
        "County": "Kartal",
        "District": "Kordonboyu",
        "CountryId": 1,
        "CityId": 34,
        "CountyId": 1449,
        "DistrictId": 40563,
        "StoreCount": 87,
        "CategoryCount": 20,
        "ATMCount": 6
    },
    {
        "Id": 1253,
        "Title": "Agora İzmir AVM",
        "Phone": "0232 277 25 25",
        "Address": "Mithatpaşa cd Balçova İzmir",
        "Logo": "https://images.endeksa.com/images/shopping-centers/logos/agora-izmir-avm.jpg",
        "Photo": "https://images.endeksa.com/images/shopping-centers/photos/agora-izmir-avm.jpg",
        "Lat": "38.39481",
        "Lon": "27.05314",
        "Country": "Türkiye",
        "City": "İzmir",
        "County": "Balçova",
        "District": "Bahçelerarası",
        "CountryId": 1,
        "CityId": 35,
        "CountyId": 2006,
        "DistrictId": 40962,
        "StoreCount": 128,
        "CategoryCount": 19,
        "ATMCount": 11
    },
    {
        "Id": 1254,
        "Title": "Asmaçatı AVM",
        "Phone": "0232 277 88 97",
        "Address": "Mithatpaşa Cd  Balçova İzmir",
        "Logo": "https://images.endeksa.com/images/shopping-centers/logos/asmaçatı-avm.jpg",
        "Photo": "https://images.endeksa.com/images/shopping-centers/photos/asmaçatı-avm.jpg",
        "Lat": "38.39481",
        "Lon": "27.04685",
        "Country": "Türkiye",
        "City": "İzmir",
        "County": "Balçova",
        "District": "Bahçelerarası",
        "CountryId": 1,
        "CityId": 35,
        "CountyId": 2006,
        "DistrictId": 40962,
        "StoreCount": 6,
        "CategoryCount": 6,
        "ATMCount": 2
    },
    {
        "Id": 1255,
        "Title": "Ege Perla AVM",
        "Phone": "444 74 96",
        "Address": "Ozan abay cd Perla izmir",
        "Logo": "https://images.endeksa.com/images/shopping-centers/logos/ege-perla-avm.jpg",
        "Photo": "https://images.endeksa.com/images/shopping-centers/photos/ege-perla-avm.jpg",
        "Lat": "38.44721",
        "Lon": "27.17468",
        "Country": "Türkiye",
        "City": "İzmir",
        "County": "Konak",
        "District": "Çınarlı",
        "CountryId": 1,
        "CityId": 35,
        "CountyId": 1819,
        "DistrictId": 41181,
        "StoreCount": 35,
        "CategoryCount": 14,
        "ATMCount": 0
    },
    {
        "Id": 1256,
        "Title": "Egepark Mavişehir AVM",
        "Phone": "0232 324 44 34",
        "Address": "2040 sk no:104 Mavişehir İzmir",
        "Logo": "https://images.endeksa.com/images/shopping-centers/logos/egepark-mavişehir-avm.jpg",
        "Photo": "https://images.endeksa.com/images/shopping-centers/photos/egepark-mavişehir-avm.jpg",
        "Lat": "38.47197",
        "Lon": "27.07518",
        "Country": "Türkiye",
        "City": "İzmir",
        "County": "Karşıyaka",
        "District": "Mavişehir",
        "CountryId": 1,
        "CityId": 35,
        "CountyId": 1448,
        "DistrictId": 41123,
        "StoreCount": 53,
        "CategoryCount": 18,
        "ATMCount": 8
    },
    {
        "Id": 1257,
        "Title": "Forum Bornova",
        "Phone": "0232 396 00 38",
        "Address": "Kazımdirik Mh 372. Sk Bornova İzmir",
        "Logo": "https://images.endeksa.com/images/shopping-centers/logos/forum-bornova.jpg",
        "Photo": "https://images.endeksa.com/images/shopping-centers/photos/forum-bornova.jpg",
        "Lat": "38.44920",
        "Lon": "27.21022",
        "Country": "Türkiye",
        "City": "İzmir",
        "County": "Bornova",
        "District": "Kazımdirik",
        "CountryId": 1,
        "CityId": 35,
        "CountyId": 1203,
        "DistrictId": 40994,
        "StoreCount": 103,
        "CategoryCount": 18,
        "ATMCount": 9
    },
    {
        "Id": 1258,
        "Title": "Hilltown Karşıyaka AVM",
        "Phone": "",
        "Address": "",
        "Logo": "https://images.endeksa.com/images/shopping-centers/logos/hilltown-karşıyaka-avm.jpg",
        "Photo": "https://images.endeksa.com/images/shopping-centers/photos/hilltown-karşıyaka-avm.jpg",
        "Lat": "38.4785843",
        "Lon": "27.0729807",
        "Country": "Türkiye",
        "City": "İzmir",
        "County": "Karşıyaka",
        "District": "Yalı",
        "CountryId": 1,
        "CityId": 35,
        "CountyId": 1448,
        "DistrictId": 41137,
        "StoreCount": 131,
        "CategoryCount": 22,
        "ATMCount": 7
    },
    {
        "Id": 1259,
        "Title": "İstinye Park İzmir AVM",
        "Phone": "",
        "Address": "",
        "Logo": "https://images.endeksa.com/images/shopping-centers/logos/istinye-park-izmir-avm.jpg",
        "Photo": "https://images.endeksa.com/images/shopping-centers/photos/istinye-park-izmir-avm.jpg",
        "Lat": "38.3979916",
        "Lon": "27.0663273",
        "Country": "Türkiye",
        "City": "İzmir",
        "County": "Balçova",
        "District": "Bahçelerarası",
        "CountryId": 1,
        "CityId": 35,
        "CountyId": 2006,
        "DistrictId": 40962,
        "StoreCount": 0,
        "CategoryCount": 0,
        "ATMCount": 0
    },
    {
        "Id": 1260,
        "Title": "İzmir Park AVM",
        "Phone": "0232 250 11 12",
        "Address": "515/4 Sokak Konak izmir",
        "Logo": "https://images.endeksa.com/images/shopping-centers/logos/izmir-park-avm.jpg",
        "Photo": "https://images.endeksa.com/images/shopping-centers/photos/izmir-park-avm.jpg",
        "Lat": "38.40311",
        "Lon": "27.12798",
        "Country": "Türkiye",
        "City": "İzmir",
        "County": "Konak",
        "District": "Güneşli",
        "CountryId": 1,
        "CityId": 35,
        "CountyId": 1819,
        "DistrictId": 41207,
        "StoreCount": 27,
        "CategoryCount": 14,
        "ATMCount": 0
    },
    {
        "Id": 1261,
        "Title": "Kipa Balçova AVM",
        "Phone": "0232 277 61 61",
        "Address": "Mithatpaşa Cd No:46 Balçova İZMİR",
        "Logo": "https://images.endeksa.com/images/shopping-centers/logos/kipa-balçova-avm.jpg",
        "Photo": "https://images.endeksa.com/images/shopping-centers/photos/kipa-balçova-avm.jpg",
        "Lat": "38.39462",
        "Lon": "27.05033",
        "Country": "Türkiye",
        "City": "İzmir",
        "County": "Balçova",
        "District": "Bahçelerarası",
        "CountryId": 1,
        "CityId": 35,
        "CountyId": 2006,
        "DistrictId": 40962,
        "StoreCount": 38,
        "CategoryCount": 16,
        "ATMCount": 0
    },
    {
        "Id": 1262,
        "Title": "Kipa Çigli AVM",
        "Phone": "",
        "Address": "Yeni Havalimanı Cd Çiğli İzmir",
        "Logo": "https://images.endeksa.com/images/shopping-centers/logos/kipa-çigli-avm.jpg",
        "Photo": "https://images.endeksa.com/images/shopping-centers/photos/kipa-çigli-avm.jpg",
        "Lat": "38.48150",
        "Lon": "27.05655",
        "Country": "Türkiye",
        "City": "İzmir",
        "County": "Çiğli",
        "District": "Ataşehir",
        "CountryId": 1,
        "CityId": 35,
        "CountyId": 2007,
        "DistrictId": 41061,
        "StoreCount": 53,
        "CategoryCount": 20,
        "ATMCount": 1
    },
    {
        "Id": 1263,
        "Title": "MaviBahçe AVM",
        "Phone": "0232 600 0444",
        "Address": "Caher Dudayev Bulv 6521.Sk mavişehir izmir",
        "Logo": "https://images.endeksa.com/images/shopping-centers/logos/mavibahçe-avm.jpg",
        "Photo": "https://images.endeksa.com/images/shopping-centers/photos/mavibahçe-avm.jpg",
        "Lat": "38.47849",
        "Lon": "27.07456",
        "Country": "Türkiye",
        "City": "İzmir",
        "County": "Karşıyaka",
        "District": "Yalı",
        "CountryId": 1,
        "CityId": 35,
        "CountyId": 1448,
        "DistrictId": 41137,
        "StoreCount": 133,
        "CategoryCount": 18,
        "ATMCount": 10
    },
    {
        "Id": 1264,
        "Title": "Novada Menemen AVM",
        "Phone": "0232 835 45 50",
        "Address": "Yıldırım Mh İzmir Çanakkale Asfaltı No 45 Menemen İzmir",
        "Logo": "https://images.endeksa.com/images/shopping-centers/logos/novada-menemen-avm.jpg",
        "Photo": "https://images.endeksa.com/images/shopping-centers/photos/novada-menemen-avm.jpg",
        "Lat": "38.67880",
        "Lon": "27.01497",
        "Country": "Türkiye",
        "City": "İzmir",
        "County": "Menemen",
        "District": "Yıldırım",
        "CountryId": 1,
        "CityId": 35,
        "CountyId": 1521,
        "DistrictId": 41560,
        "StoreCount": 24,
        "CategoryCount": 12,
        "ATMCount": 2
    },
    {
        "Id": 1265,
        "Title": "Optimum İzmir /Outlet",
        "Phone": "0232 273 83 83",
        "Address": "Akçay Cd No:101 Gaziemir İzmir",
        "Logo": "https://images.endeksa.com/images/shopping-centers/logos/optimum-izmir--outlet.jpg",
        "Photo": "https://images.endeksa.com/images/shopping-centers/photos/optimum-izmir--outlet.jpg",
        "Lat": "38.33848",
        "Lon": "27.13475",
        "Country": "Türkiye",
        "City": "İzmir",
        "County": "Gaziemir",
        "District": "Beyazevler",
        "CountryId": 1,
        "CityId": 35,
        "CountyId": 2009,
        "DistrictId": 41075,
        "StoreCount": 178,
        "CategoryCount": 22,
        "ATMCount": 10
    },
    {
        "Id": 1266,
        "Title": "Park Bornova /Outlet",
        "Phone": "0232 373 75 76",
        "Address": " Ankara Asfaltı No192 Bornova İzmir",
        "Logo": "https://images.endeksa.com/images/shopping-centers/logos/park-bornova--outlet.jpg",
        "Photo": "https://images.endeksa.com/images/shopping-centers/photos/park-bornova--outlet.jpg",
        "Lat": "38.45580",
        "Lon": "27.24853",
        "Country": "Türkiye",
        "City": "İzmir",
        "County": "Bornova",
        "District": "Doğanlar",
        "CountryId": 1,
        "CityId": 35,
        "CountyId": 1203,
        "DistrictId": 40987,
        "StoreCount": 19,
        "CategoryCount": 12,
        "ATMCount": 3
    },
    {
        "Id": 1267,
        "Title": "Point Bornova AVM",
        "Phone": "0850 210 00 01",
        "Address": "4174 Sk Bağburnu Mevkii, Bornova İZMİR",
        "Logo": "https://images.endeksa.com/images/shopping-centers/logos/point-bornova-avm.jpg",
        "Photo": "https://images.endeksa.com/images/shopping-centers/photos/point-bornova-avm.jpg",
        "Lat": "38.43018",
        "Lon": "27.21031",
        "Country": "Türkiye",
        "City": "İzmir",
        "County": "Bornova",
        "District": "Yeşilova",
        "CountryId": 1,
        "CityId": 35,
        "CountyId": 1203,
        "DistrictId": 40983,
        "StoreCount": 69,
        "CategoryCount": 20,
        "ATMCount": 6
    },
    {
        "Id": 1268,
        "Title": "Selway AVM /Outlet",
        "Phone": "0232 259 1 259",
        "Address": "Çetin Emeç Mh Kıvanç Sk Balçova İzmir",
        "Logo": "https://images.endeksa.com/images/shopping-centers/logos/selway-avm--outlet.jpg",
        "Photo": "https://images.endeksa.com/images/shopping-centers/photos/selway-avm--outlet.jpg",
        "Lat": "38.37621",
        "Lon": "27.07357",
        "Country": "Türkiye",
        "City": "İzmir",
        "County": "Balçova",
        "District": "Çetin Emeç",
        "CountryId": 1,
        "CityId": 35,
        "CountyId": 2006,
        "DistrictId": 40963,
        "StoreCount": 51,
        "CategoryCount": 15,
        "ATMCount": 4
    },
    {
        "Id": 1269,
        "Title": "Westpark AVM /Outlet",
        "Phone": "0232 306 06 06",
        "Address": "Refik Şevket İnce Mh 2148/9 sk Bayraklı İZMİR",
        "Logo": "https://images.endeksa.com/images/shopping-centers/logos/westpark-avm--outlet.jpg",
        "Photo": "https://images.endeksa.com/images/shopping-centers/photos/westpark-avm--outlet.jpg",
        "Lat": "38.48070",
        "Lon": "27.17953",
        "Country": "Türkiye",
        "City": "İzmir",
        "County": "Bornova",
        "District": "Laka",
        "CountryId": 1,
        "CityId": 35,
        "CountyId": 1203,
        "DistrictId": 192793,
        "StoreCount": 75,
        "CategoryCount": 17,
        "ATMCount": 0
    },
    {
        "Id": 1273,
        "Title": "Forum Kayseri AVM",
        "Phone": "0352 207 56 00",
        "Address": "Hunat Mh Sivas Cd Melikgazi Kayseri",
        "Logo": "https://images.endeksa.com/images/shopping-centers/logos/forum-kayseri-avm.jpg",
        "Photo": "https://images.endeksa.com/images/shopping-centers/photos/forum-kayseri-avm.jpg",
        "Lat": "38.72378",
        "Lon": "35.49780",
        "Country": "Türkiye",
        "City": "Kayseri",
        "County": "Melikgazi",
        "District": "Hunat",
        "CountryId": 1,
        "CityId": 38,
        "CountyId": 1864,
        "DistrictId": 42081,
        "StoreCount": 136,
        "CategoryCount": 22,
        "ATMCount": 10
    },
    {
        "Id": 1274,
        "Title": "ipeksaray AVM",
        "Phone": "0352 224 81 02",
        "Address": "Melikgazi Mh Sivas Blv Melikgazi Kayseri",
        "Logo": "https://images.endeksa.com/images/shopping-centers/logos/ipeksaray-avm.jpg",
        "Photo": "https://images.endeksa.com/images/shopping-centers/photos/ipeksaray-avm.jpg",
        "Lat": "38.73206",
        "Lon": "35.52599",
        "Country": "Türkiye",
        "City": "Kayseri",
        "County": "Melikgazi",
        "District": "Melikgazi",
        "CountryId": 1,
        "CityId": 38,
        "CountyId": 1864,
        "DistrictId": 42071,
        "StoreCount": 10,
        "CategoryCount": 7,
        "ATMCount": 4
    },
    {
        "Id": 1275,
        "Title": "Kayseri Park AVM",
        "Phone": "0352 223 30 30",
        "Address": "Alparslan Mh Eşref Bitlis Blv Melikgazi Kayseri",
        "Logo": "https://images.endeksa.com/images/shopping-centers/logos/kayseri-park-avm.jpg",
        "Photo": "https://images.endeksa.com/images/shopping-centers/photos/kayseri-park-avm.jpg",
        "Lat": "38.72706",
        "Lon": "35.51839",
        "Country": "Türkiye",
        "City": "Kayseri",
        "County": "Melikgazi",
        "District": "Alpaslan",
        "CountryId": 1,
        "CityId": 38,
        "CountyId": 1864,
        "DistrictId": 42042,
        "StoreCount": 93,
        "CategoryCount": 22,
        "ATMCount": 9
    },
    {
        "Id": 1276,
        "Title": "Kaysermall AVM /Outlet",
        "Phone": "",
        "Address": "İldem Fatih Mh Günsazak Cd Melikgazi Kayseri",
        "Logo": "https://images.endeksa.com/images/shopping-centers/logos/kaysermall-avm--outlet.jpg",
        "Photo": "https://images.endeksa.com/images/shopping-centers/photos/kaysermall-avm--outlet.jpg",
        "Lat": "38.78648",
        "Lon": "35.60603",
        "Country": "Türkiye",
        "City": "Kayseri",
        "County": "Melikgazi",
        "District": "Gesi Fatih",
        "CountryId": 1,
        "CityId": 38,
        "CountyId": 1864,
        "DistrictId": 42108,
        "StoreCount": 28,
        "CategoryCount": 13,
        "ATMCount": 0
    },
    {
        "Id": 1277,
        "Title": "KumsMall AVM",
        "Phone": "",
        "Address": "",
        "Logo": "https://images.endeksa.com/images/shopping-centers/logos/kumsmall-avm.jpg",
        "Photo": "https://images.endeksa.com/images/shopping-centers/photos/kumsmall-avm.jpg",
        "Lat": "38.7785706",
        "Lon": "35.4247235",
        "Country": "Türkiye",
        "City": "Kayseri",
        "County": "Kocasinan",
        "District": "Oymaağaç",
        "CountryId": 1,
        "CityId": 38,
        "CountyId": 1863,
        "DistrictId": 41998,
        "StoreCount": 1,
        "CategoryCount": 1,
        "ATMCount": 0
    },
    {
        "Id": 1278,
        "Title": "Meysu AVM /Outlet",
        "Phone": "0352 326 36 00",
        "Address": "Osman Kavuncu Blv Kayseri",
        "Logo": "https://images.endeksa.com/images/shopping-centers/logos/meysu-avm--outlet.jpg",
        "Photo": "https://images.endeksa.com/images/shopping-centers/photos/meysu-avm--outlet.jpg",
        "Lat": "38.75362",
        "Lon": "35.33638",
        "Country": "Türkiye",
        "City": "Kayseri",
        "County": "Melikgazi",
        "District": "Anbar",
        "CountryId": 1,
        "CityId": 38,
        "CountyId": 1864,
        "DistrictId": 42045,
        "StoreCount": 24,
        "CategoryCount": 14,
        "ATMCount": 8
    },
    {
        "Id": 1280,
        "Title": "39Burda AVM Lüleburgaz",
        "Phone": "0288 502 08 39",
        "Address": "8 Kasım Mh İstasyon Cd No:151 Lüleburgaz",
        "Logo": "https://images.endeksa.com/images/shopping-centers/logos/39burda-avm-lüleburgaz.jpg",
        "Photo": "https://images.endeksa.com/images/shopping-centers/photos/39burda-avm-lüleburgaz.jpg",
        "Lat": "41.38528",
        "Lon": "27.34842",
        "Country": "Türkiye",
        "City": "Kırklareli",
        "County": "Lüleburgaz",
        "District": "Durak",
        "CountryId": 1,
        "CityId": 39,
        "CountyId": 1505,
        "DistrictId": 49943,
        "StoreCount": 49,
        "CategoryCount": 16,
        "ATMCount": 0
    },
    {
        "Id": 1281,
        "Title": "41 Burda AVM",
        "Phone": "0262 335 55 50",
        "Address": "Sanayi Mh Ömer Türkçakal Bulv No:7 İzmit",
        "Logo": "https://images.endeksa.com/images/shopping-centers/logos/41-burda-avm.jpg",
        "Photo": "https://images.endeksa.com/images/shopping-centers/photos/41-burda-avm.jpg",
        "Lat": "40.75654",
        "Lon": "29.94803",
        "Country": "Türkiye",
        "City": "Kocaeli",
        "County": "İzmit",
        "District": "Sanayi",
        "CountryId": 1,
        "CityId": 41,
        "CountyId": 2062,
        "DistrictId": 50162,
        "StoreCount": 114,
        "CategoryCount": 22,
        "ATMCount": 7
    },
    {
        "Id": 1282,
        "Title": "ArastaPark AVM",
        "Phone": "0262 311 73 40",
        "Address": "Yahya Kaptan Mh Akasyalar Cd İzmit",
        "Logo": "https://images.endeksa.com/images/shopping-centers/logos/arastapark-avm.jpg",
        "Photo": "https://images.endeksa.com/images/shopping-centers/photos/arastapark-avm.jpg",
        "Lat": "40.76657",
        "Lon": "29.97664",
        "Country": "Türkiye",
        "City": "Kocaeli",
        "County": "İzmit",
        "District": "Yahyakaptan",
        "CountryId": 1,
        "CityId": 41,
        "CountyId": 2062,
        "DistrictId": 50141,
        "StoreCount": 45,
        "CategoryCount": 17,
        "ATMCount": 9
    },
    {
        "Id": 1283,
        "Title": "Gebze Center AVM",
        "Phone": "0262 641 67 99",
        "Address": "Tatlıkuyu Mh Güney yanyol Gebze Kocaeli",
        "Logo": "https://images.endeksa.com/images/shopping-centers/logos/gebze-center-avm.jpg",
        "Photo": "https://images.endeksa.com/images/shopping-centers/photos/gebze-center-avm.jpg",
        "Lat": "40.79547",
        "Lon": "29.44219",
        "Country": "Türkiye",
        "City": "Kocaeli",
        "County": "Gebze",
        "District": "Tatlıkuyu",
        "CountryId": 1,
        "CityId": 41,
        "CountyId": 1338,
        "DistrictId": 50286,
        "StoreCount": 82,
        "CategoryCount": 20,
        "ATMCount": 11
    },
    {
        "Id": 1284,
        "Title": "Ncity AVM",
        "Phone": "0262 323 76 06",
        "Address": "Oramiral salim Dervişoğlu cd İzmit Kocaeli",
        "Logo": "https://images.endeksa.com/images/shopping-centers/logos/ncity-avm.jpg",
        "Photo": "https://images.endeksa.com/images/shopping-centers/photos/ncity-avm.jpg",
        "Lat": "40.75979",
        "Lon": "29.93449",
        "Country": "Türkiye",
        "City": "Kocaeli",
        "County": "İzmit",
        "District": "Karabaş",
        "CountryId": 1,
        "CityId": 41,
        "CountyId": 2062,
        "DistrictId": 50156,
        "StoreCount": 37,
        "CategoryCount": 14,
        "ATMCount": 17
    },
    {
        "Id": 1285,
        "Title": "Outlet Center AVM",
        "Phone": "0262 335 31 70",
        "Address": "Sanayi Mahallesi Ömer Türkçakal Bulvarı Eski Gölcük Yolu Üzeri, İzmit / KOCAELİ",
        "Logo": "https://images.endeksa.com/images/shopping-centers/logos/outlet-center-avm.jpg",
        "Photo": "https://images.endeksa.com/images/shopping-centers/photos/outlet-center-avm.jpg",
        "Lat": "40.75336",
        "Lon": "29.94647",
        "Country": "Türkiye",
        "City": "Kocaeli",
        "County": "İzmit",
        "District": "Sanayi",
        "CountryId": 1,
        "CityId": 41,
        "CountyId": 2062,
        "DistrictId": 50162,
        "StoreCount": 46,
        "CategoryCount": 14,
        "ATMCount": 10
    },
    {
        "Id": 1286,
        "Title": "Symbol AVM",
        "Phone": "444 1 262",
        "Address": "Adapazarı izmit yolu kocaeli",
        "Logo": "https://images.endeksa.com/images/shopping-centers/logos/symbol-avm.jpg",
        "Photo": "https://images.endeksa.com/images/shopping-centers/photos/symbol-avm.jpg",
        "Lat": "40.75946",
        "Lon": "29.97761",
        "Country": "Türkiye",
        "City": "Kocaeli",
        "County": "Başiskele",
        "District": "Ovacık",
        "CountryId": 1,
        "CityId": 41,
        "CountyId": 2058,
        "DistrictId": 50200,
        "StoreCount": 103,
        "CategoryCount": 21,
        "ATMCount": 0
    },
    {
        "Id": 1287,
        "Title": "Ereğli Parksite AVM",
        "Phone": "0332 712 65 00",
        "Address": "Sümer Mh Rasim Erel Cd Ereğli Konya",
        "Logo": "https://images.endeksa.com/images/shopping-centers/logos/ereğli-parksite-avm.jpg",
        "Photo": "https://images.endeksa.com/images/shopping-centers/photos/ereğli-parksite-avm.jpg",
        "Lat": "37.50685",
        "Lon": "34.04979",
        "Country": "Türkiye",
        "City": "Konya",
        "County": "Ereğli",
        "District": "Sümer",
        "CountryId": 1,
        "CityId": 42,
        "CountyId": 1312,
        "DistrictId": 51076,
        "StoreCount": 20,
        "CategoryCount": 8,
        "ATMCount": 4
    },
    {
        "Id": 1288,
        "Title": "Kent Plaza AVM",
        "Phone": "0332 501 01 00",
        "Address": "Bedir Mh Ataseven Cd Selçuklu Konya",
        "Logo": "https://images.endeksa.com/images/shopping-centers/logos/kent-plaza-avm.jpg",
        "Photo": "https://images.endeksa.com/images/shopping-centers/photos/kent-plaza-avm.jpg",
        "Lat": "37.90543",
        "Lon": "32.49470",
        "Country": "Türkiye",
        "City": "Konya",
        "County": "Selçuklu",
        "District": "Bedir",
        "CountryId": 1,
        "CityId": 42,
        "CountyId": 1839,
        "DistrictId": 50684,
        "StoreCount": 109,
        "CategoryCount": 21,
        "ATMCount": 7
    },
    {
        "Id": 1289,
        "Title": "Kule Site AVM",
        "Phone": "0332 234 32 72",
        "Address": "Feritpaşa Mh Kule Cd Selçuklu Konya",
        "Logo": "https://images.endeksa.com/images/shopping-centers/logos/kule-site-avm.jpg",
        "Photo": "https://images.endeksa.com/images/shopping-centers/photos/kule-site-avm.jpg",
        "Lat": "37.88961",
        "Lon": "32.49305",
        "Country": "Türkiye",
        "City": "Konya",
        "County": "Selçuklu",
        "District": "Musalla Bağları",
        "CountryId": 1,
        "CityId": 42,
        "CountyId": 1839,
        "DistrictId": 50699,
        "StoreCount": 80,
        "CategoryCount": 18,
        "ATMCount": 10
    },
    {
        "Id": 1290,
        "Title": "M1 Konya AVM",
        "Phone": "0332 265 06 00",
        "Address": "Yazır Mh Dr HalilÜrün Cd Selçuklu Konya",
        "Logo": "https://images.endeksa.com/images/shopping-centers/logos/m1-konya-avm.jpg",
        "Photo": "https://images.endeksa.com/images/shopping-centers/photos/m1-konya-avm.jpg",
        "Lat": "37.95049",
        "Lon": "32.49619",
        "Country": "Türkiye",
        "City": "Konya",
        "County": "Selçuklu",
        "District": "Yazır",
        "CountryId": 1,
        "CityId": 42,
        "CountyId": 1839,
        "DistrictId": 50722,
        "StoreCount": 48,
        "CategoryCount": 18,
        "ATMCount": 0
    },
    {
        "Id": 1291,
        "Title": "Novaland Konya /Outlet",
        "Phone": "0332 502 08 08",
        "Address": "Dr.Sadık Ahmet Cd Konya",
        "Logo": "https://images.endeksa.com/images/shopping-centers/logos/novaland-konya--outlet.jpg",
        "Photo": "https://images.endeksa.com/images/shopping-centers/photos/novaland-konya--outlet.jpg",
        "Lat": "37.94899",
        "Lon": "32.52458",
        "Country": "Türkiye",
        "City": "Konya",
        "County": "Selçuklu",
        "District": "Sancak",
        "CountryId": 1,
        "CityId": 42,
        "CountyId": 1839,
        "DistrictId": 50719,
        "StoreCount": 64,
        "CategoryCount": 18,
        "ATMCount": 4
    },
    {
        "Id": 1292,
        "Title": "Kütahya Sera AVM",
        "Phone": "0274 225 13 13",
        "Address": "Akkent Mh Eskişehir yol üzeri 1.Km Kütahya",
        "Logo": "https://images.endeksa.com/images/shopping-centers/logos/kütahya-sera-avm.jpg",
        "Photo": "https://images.endeksa.com/images/shopping-centers/photos/kütahya-sera-avm.jpg",
        "Lat": "39.42860",
        "Lon": "29.99477",
        "Country": "Türkiye",
        "City": "Kütahya",
        "County": "Merkez",
        "District": "Yıldırım Beyazıt",
        "CountryId": 1,
        "CityId": 43,
        "CountyId": 1500,
        "DistrictId": 51424,
        "StoreCount": 61,
        "CategoryCount": 19,
        "ATMCount": 7
    },
    {
        "Id": 1293,
        "Title": "Malatya Park AVM",
        "Phone": "0422 212 55 66",
        "Address": "İnönü Cad. No:192 Malatya",
        "Logo": "https://images.endeksa.com/images/shopping-centers/logos/malatya-park-avm.jpg",
        "Photo": "https://images.endeksa.com/images/shopping-centers/photos/malatya-park-avm.jpg",
        "Lat": "38.34893",
        "Lon": "38.29759",
        "Country": "Türkiye",
        "City": "Malatya",
        "County": "Yeşilyurt",
        "District": "İnönü",
        "CountryId": 1,
        "CityId": 44,
        "CountyId": 1729,
        "DistrictId": 51741,
        "StoreCount": 95,
        "CategoryCount": 20,
        "ATMCount": 11
    },
    {
        "Id": 1294,
        "Title": "Forum Magnesia AVM",
        "Phone": "0236 302 20 00",
        "Address": "Laleli Mh Ali Rıza Efendi Cd Manisa",
        "Logo": "https://images.endeksa.com/images/shopping-centers/logos/forum-magnesia-avm.jpg",
        "Photo": "https://images.endeksa.com/images/shopping-centers/photos/forum-magnesia-avm.jpg",
        "Lat": "38.61625",
        "Lon": "27.40030",
        "Country": "Türkiye",
        "City": "Manisa",
        "County": "Yunusemre",
        "District": "Laleli",
        "CountryId": 1,
        "CityId": 45,
        "CountyId": 2087,
        "DistrictId": 52096,
        "StoreCount": 42,
        "CategoryCount": 16,
        "ATMCount": 7
    },
    {
        "Id": 1295,
        "Title": "Kipa Salihli AVM",
        "Phone": "",
        "Address": "",
        "Logo": "https://images.endeksa.com/images/shopping-centers/logos/kipa-salihli-avm.jpg",
        "Photo": "https://images.endeksa.com/images/shopping-centers/photos/kipa-salihli-avm.jpg",
        "Lat": "38.482653",
        "Lon": "28.1247136",
        "Country": "Türkiye",
        "City": "Manisa",
        "County": "Salihli",
        "District": "Şehitler",
        "CountryId": 1,
        "CityId": 45,
        "CountyId": 1590,
        "DistrictId": 52340,
        "StoreCount": 12,
        "CategoryCount": 8,
        "ATMCount": 0
    },
    {
        "Id": 1296,
        "Title": "Novada Akhisar /Outlet",
        "Phone": "",
        "Address": "",
        "Logo": "https://images.endeksa.com/images/shopping-centers/logos/novada-akhisar--outlet.jpg",
        "Photo": "https://images.endeksa.com/images/shopping-centers/photos/novada-akhisar--outlet.jpg",
        "Lat": "38.943418",
        "Lon": "27.834982",
        "Country": "Türkiye",
        "City": "Manisa",
        "County": "Akhisar",
        "District": "Seyit Ahmet",
        "CountryId": 1,
        "CityId": 45,
        "CountyId": 1118,
        "DistrictId": 52159,
        "StoreCount": 30,
        "CategoryCount": 14,
        "ATMCount": 7
    },
    {
        "Id": 1270,
        "Title": "Maraş Piazza AVM",
        "Phone": "0344 235 23 43",
        "Address": "Şazibey Mh Batı Çevre Yolu Kahramanmaraş",
        "Logo": "https://images.endeksa.com/images/shopping-centers/logos/maraş-piazza-avm.jpg",
        "Photo": "https://images.endeksa.com/images/shopping-centers/photos/maraş-piazza-avm.jpg",
        "Lat": "37.57020",
        "Lon": "36.92204",
        "Country": "Türkiye",
        "City": "Kahramanmaraş",
        "County": "Onikişubat",
        "District": "Şazi Bey",
        "CountryId": 1,
        "CityId": 46,
        "CountyId": 2085,
        "DistrictId": 52539,
        "StoreCount": 105,
        "CategoryCount": 21,
        "ATMCount": 11
    },
    {
        "Id": 1297,
        "Title": "Movapark AVM",
        "Phone": "0482 312 68 68",
        "Address": "Urfa Mardin Yolüzeri Havaalanı yanı Kızıltepe Mardin",
        "Logo": "https://images.endeksa.com/images/shopping-centers/logos/movapark-avm.jpg",
        "Photo": "https://images.endeksa.com/images/shopping-centers/photos/movapark-avm.jpg",
        "Lat": "37.23774",
        "Lon": "40.63782",
        "Country": "Türkiye",
        "City": "Mardin",
        "County": "Kızıltepe",
        "District": "Turgut Özal",
        "CountryId": 1,
        "CityId": 47,
        "CountyId": 1474,
        "DistrictId": 59964,
        "StoreCount": 41,
        "CategoryCount": 13,
        "ATMCount": 6
    },
    {
        "Id": 1302,
        "Title": "Avenue Bodrum AVM",
        "Phone": "444 3 719",
        "Address": "saldır şeyh sk Bodrum",
        "Logo": "https://images.endeksa.com/images/shopping-centers/logos/avenue-bodrum-avm.jpg",
        "Photo": "https://images.endeksa.com/images/shopping-centers/photos/avenue-bodrum-avm.jpg",
        "Lat": "37.04562",
        "Lon": "27.40008",
        "Country": "Türkiye",
        "City": "Muğla",
        "County": "Bodrum",
        "District": "Çırkan",
        "CountryId": 1,
        "CityId": 48,
        "CountyId": 1197,
        "DistrictId": 197793,
        "StoreCount": 12,
        "CategoryCount": 6,
        "ATMCount": 0
    },
    {
        "Id": 1303,
        "Title": "Erasta Fethiye AVM",
        "Phone": "0252 614 63 65",
        "Address": "Taşyaka Mh Otogar Yanı Fethiye/Muğla",
        "Logo": "https://images.endeksa.com/images/shopping-centers/logos/erasta-fethiye-avm.jpg",
        "Photo": "https://images.endeksa.com/images/shopping-centers/photos/erasta-fethiye-avm.jpg",
        "Lat": "36.62229",
        "Lon": "29.13185",
        "Country": "Türkiye",
        "City": "Muğla",
        "County": "Fethiye",
        "District": "Taşyaka",
        "CountryId": 1,
        "CityId": 48,
        "CountyId": 1331,
        "DistrictId": 60132,
        "StoreCount": 43,
        "CategoryCount": 14,
        "ATMCount": 6
    },
    {
        "Id": 1304,
        "Title": "Midtown AVM Bodrum",
        "Phone": "0252 307 00 00",
        "Address": "Kemer Mevkii Ortakent Bodrum Muğla",
        "Logo": "https://images.endeksa.com/images/shopping-centers/logos/midtown-avm-bodrum.jpg",
        "Photo": "https://images.endeksa.com/images/shopping-centers/photos/midtown-avm-bodrum.jpg",
        "Lat": "37.05663",
        "Lon": "27.35956",
        "Country": "Türkiye",
        "City": "Muğla",
        "County": "Bodrum",
        "District": "Ortakentyahşi",
        "CountryId": 1,
        "CityId": 48,
        "CountyId": 1197,
        "DistrictId": 176221,
        "StoreCount": 86,
        "CategoryCount": 20,
        "ATMCount": 4
    },
    {
        "Id": 1305,
        "Title": "Oasis Bodrum AVM",
        "Phone": "0252 317 00 02",
        "Address": "Emin Arter Bulv Kıbrıs Şehitleri Cd Bodrum Muğla",
        "Logo": "https://images.endeksa.com/images/shopping-centers/logos/oasis-bodrum-avm.jpg",
        "Photo": "https://images.endeksa.com/images/shopping-centers/photos/oasis-bodrum-avm.jpg",
        "Lat": "37.04126",
        "Lon": "27.41072",
        "Country": "Türkiye",
        "City": "Muğla",
        "County": "Bodrum",
        "District": "Cumhuriyet",
        "CountryId": 1,
        "CityId": 48,
        "CountyId": 1197,
        "DistrictId": 100143,
        "StoreCount": 58,
        "CategoryCount": 17,
        "ATMCount": 9
    },
    {
        "Id": 1306,
        "Title": "Pomelon AVM",
        "Phone": "0252 512 10 21",
        "Address": "Milas Bodrum Muğla",
        "Logo": "https://images.endeksa.com/images/shopping-centers/logos/pomelon-avm.jpg",
        "Photo": "https://images.endeksa.com/images/shopping-centers/photos/pomelon-avm.jpg",
        "Lat": "37.30744",
        "Lon": "27.78823",
        "Country": "Türkiye",
        "City": "Muğla",
        "County": "Milas",
        "District": "Cumhuriyet",
        "CountryId": 1,
        "CityId": 48,
        "CountyId": 1528,
        "DistrictId": 60220,
        "StoreCount": 19,
        "CategoryCount": 12,
        "ATMCount": 7
    },
    {
        "Id": 1307,
        "Title": "Rüyapark AVM",
        "Phone": "0252 214 49 99",
        "Address": "Emirbeyazıt Mh 28.Sk Menteşe Muğla",
        "Logo": "https://images.endeksa.com/images/shopping-centers/logos/rüyapark-avm.jpg",
        "Photo": "https://images.endeksa.com/images/shopping-centers/photos/rüyapark-avm.jpg",
        "Lat": "37.20844",
        "Lon": "28.36741",
        "Country": "Türkiye",
        "City": "Muğla",
        "County": "Menteşe",
        "District": "Emirbeyazıt",
        "CountryId": 1,
        "CityId": 48,
        "CountyId": 2089,
        "DistrictId": 60047,
        "StoreCount": 16,
        "CategoryCount": 10,
        "ATMCount": 0
    },
    {
        "Id": 1308,
        "Title": "Forum Kapadokya AVM",
        "Phone": "0384 228 01 00",
        "Address": "Bahçelievler Mh Mustafa Parmaksız Cd Nevşehir",
        "Logo": "https://images.endeksa.com/images/shopping-centers/logos/forum-kapadokya-avm.jpg",
        "Photo": "https://images.endeksa.com/images/shopping-centers/photos/forum-kapadokya-avm.jpg",
        "Lat": "38.63531",
        "Lon": "34.70936",
        "Country": "Türkiye",
        "City": "Nevşehir",
        "County": "Merkez",
        "District": "Bahçelievler",
        "CountryId": 1,
        "CityId": 50,
        "CountyId": 1543,
        "DistrictId": 60412,
        "StoreCount": 34,
        "CategoryCount": 16,
        "ATMCount": 5
    },
    {
        "Id": 1309,
        "Title": "Nissara AVM Kapadokya",
        "Phone": "",
        "Address": "Yeni Mh Lale Cd Nevşehir",
        "Logo": "https://images.endeksa.com/images/shopping-centers/logos/nissara-avm-kapadokya.jpg",
        "Photo": "https://images.endeksa.com/images/shopping-centers/photos/nissara-avm-kapadokya.jpg",
        "Lat": "38.62470",
        "Lon": "34.71560",
        "Country": "Türkiye",
        "City": "Nevşehir",
        "County": "Merkez",
        "District": "Yeni",
        "CountryId": 1,
        "CityId": 50,
        "CountyId": 1543,
        "DistrictId": 60437,
        "StoreCount": 39,
        "CategoryCount": 13,
        "ATMCount": 0
    },
    {
        "Id": 1310,
        "Title": "Fatsa City AVM",
        "Phone": "0452 400 15 00",
        "Address": "Hükümet cd Fatsa Ordu",
        "Logo": "https://images.endeksa.com/images/shopping-centers/logos/fatsa-city-avm.jpg",
        "Photo": "https://images.endeksa.com/images/shopping-centers/photos/fatsa-city-avm.jpg",
        "Lat": "40.98566",
        "Lon": "37.87860",
        "Country": "Türkiye",
        "City": "Ordu",
        "County": "Altınordu",
        "District": "Düz",
        "CountryId": 1,
        "CityId": 52,
        "CountyId": 2103,
        "DistrictId": 60822,
        "StoreCount": 12,
        "CategoryCount": 9,
        "ATMCount": 3
    },
    {
        "Id": 1311,
        "Title": "Novada Ordu AVM",
        "Phone": "0452 600 00 50",
        "Address": "Şarkiye Mh Kazım Karabekir Cd Altınordu Ordu",
        "Logo": "https://images.endeksa.com/images/shopping-centers/logos/novada-ordu-avm.jpg",
        "Photo": "https://images.endeksa.com/images/shopping-centers/photos/novada-ordu-avm.jpg",
        "Lat": "40.98451",
        "Lon": "37.88215",
        "Country": "Türkiye",
        "City": "Ordu",
        "County": "Altınordu",
        "District": "Şarkiye",
        "CountryId": 1,
        "CityId": 52,
        "CountyId": 2103,
        "DistrictId": 60833,
        "StoreCount": 31,
        "CategoryCount": 13,
        "ATMCount": 0
    },
    {
        "Id": 1312,
        "Title": "Uniport AVM Ünye",
        "Phone": "0452 333 33 35",
        "Address": "52300 Ünye, Ordu",
        "Logo": "https://images.endeksa.com/images/shopping-centers/logos/uniport-avm-ünye.jpg",
        "Photo": "https://images.endeksa.com/images/shopping-centers/photos/uniport-avm-ünye.jpg",
        "Lat": "41.12724",
        "Lon": "37.28864",
        "Country": "Türkiye",
        "City": "Ordu",
        "County": "Ünye",
        "District": "Kaledere",
        "CountryId": 1,
        "CityId": 52,
        "CountyId": 1706,
        "DistrictId": 61208,
        "StoreCount": 20,
        "CategoryCount": 11,
        "ATMCount": 0
    },
    {
        "Id": 1314,
        "Title": "Rize Şimal AVM",
        "Phone": "",
        "Address": "",
        "Logo": "https://images.endeksa.com/images/shopping-centers/logos/rize-şimal-avm.jpg",
        "Photo": "https://images.endeksa.com/images/shopping-centers/photos/rize-şimal-avm.jpg",
        "Lat": "41.0240095",
        "Lon": "40.5326935",
        "Country": "Türkiye",
        "City": "Rize",
        "County": "Merkez",
        "District": "Müftü",
        "CountryId": 1,
        "CityId": 53,
        "CountyId": 1586,
        "DistrictId": 61304,
        "StoreCount": 2,
        "CategoryCount": 2,
        "ATMCount": 0
    },
    {
        "Id": 1315,
        "Title": "Ada AVM",
        "Phone": "0264 242 11 00",
        "Address": "Yeni Sakarya Cd Erenler köyü Sakarya",
        "Logo": "https://images.endeksa.com/images/shopping-centers/logos/ada-avm.jpg",
        "Photo": "https://images.endeksa.com/images/shopping-centers/photos/ada-avm.jpg",
        "Lat": "40.74580",
        "Lon": "30.41376",
        "Country": "Türkiye",
        "City": "Sakarya",
        "County": "Erenler",
        "District": "Erenler",
        "CountryId": 1,
        "CityId": 54,
        "CountyId": 2070,
        "DistrictId": 61557,
        "StoreCount": 39,
        "CategoryCount": 16,
        "ATMCount": 10
    },
    {
        "Id": 1316,
        "Title": "Agora Adapazarı AVM",
        "Phone": "0264 333 20 20",
        "Address": "Eski kazımpaşa cd Arabacı alanı mh Serdivan Sakarya",
        "Logo": "https://images.endeksa.com/images/shopping-centers/logos/agora-adapazarı-avm.jpg",
        "Photo": "https://images.endeksa.com/images/shopping-centers/photos/agora-adapazarı-avm.jpg",
        "Lat": "40.77571",
        "Lon": "30.38096",
        "Country": "Türkiye",
        "City": "Sakarya",
        "County": "Adapazarı",
        "District": "Şeker",
        "CountryId": 1,
        "CityId": 54,
        "CountyId": 2068,
        "DistrictId": 61522,
        "StoreCount": 87,
        "CategoryCount": 20,
        "ATMCount": 0
    },
    {
        "Id": 1346,
        "Title": "NG Sapanca Bedesten AVM",
        "Phone": "0264 582 27 00",
        "Address": "İzmit Cad. No:160 Sapanca/SAKARYA",
        "Logo": "https://images.endeksa.com/images/shopping-centers/logos/ng-sapanca-bedesten-logo.jpg",
        "Photo": "https://images.endeksa.com/images/shopping-centers/photos/ng-bedesten-avm.jpg",
        "Lat": "40.689171",
        "Lon": "30.238384",
        "Country": "Türkiye",
        "City": "Sakarya",
        "County": "Sapanca",
        "District": "Kırkpınar Hasanpaşa",
        "CountryId": 1,
        "CityId": 54,
        "CountyId": 1595,
        "DistrictId": 61752,
        "StoreCount": 8,
        "CategoryCount": 5,
        "ATMCount": 0
    },
    {
        "Id": 1317,
        "Title": "Parkshop AVM /Outlet",
        "Phone": "0264 615 26 30",
        "Address": "Tem Otoyolu 157.Km Hamitli Mevkii Hendek Sakarya ",
        "Logo": "https://images.endeksa.com/images/shopping-centers/logos/parkshop-avm--outlet.jpg",
        "Photo": "https://images.endeksa.com/images/shopping-centers/photos/parkshop-avm--outlet.jpg",
        "Lat": "40.75388",
        "Lon": "30.69862",
        "Country": "Türkiye",
        "City": "Sakarya",
        "County": "Hendek",
        "District": "Hamitli",
        "CountryId": 1,
        "CityId": 54,
        "CountyId": 1391,
        "DistrictId": 185123,
        "StoreCount": 17,
        "CategoryCount": 6,
        "ATMCount": 5
    },
    {
        "Id": 1318,
        "Title": "Serdivan AVM",
        "Phone": "0264 777 18 20",
        "Address": "Arabacı Alanı Mh Mert Sk Serdivan Sakarya",
        "Logo": "https://images.endeksa.com/images/shopping-centers/logos/serdivan-avm.jpg",
        "Photo": "https://images.endeksa.com/images/shopping-centers/photos/serdivan-avm.jpg",
        "Lat": "40.77855",
        "Lon": "30.36571",
        "Country": "Türkiye",
        "City": "Sakarya",
        "County": "Serdivan",
        "District": "Arabacıalanı",
        "CountryId": 1,
        "CityId": 54,
        "CountyId": 2071,
        "DistrictId": 61591,
        "StoreCount": 73,
        "CategoryCount": 20,
        "ATMCount": 10
    },
    {
        "Id": 1319,
        "Title": "Bulvar Samsun AVM",
        "Phone": "0362 290 27 55",
        "Address": "19 Mayıs Bulvarı No:17 İlkadım Samsun",
        "Logo": "https://images.endeksa.com/images/shopping-centers/logos/bulvar-samsun-avm.jpg",
        "Photo": "https://images.endeksa.com/images/shopping-centers/photos/bulvar-samsun-avm.jpg",
        "Lat": "41.28915",
        "Lon": "36.33383",
        "Country": "Türkiye",
        "City": "Samsun",
        "County": "İlkadım",
        "District": "Kale",
        "CountryId": 1,
        "CityId": 55,
        "CountyId": 2074,
        "DistrictId": 61858,
        "StoreCount": 22,
        "CategoryCount": 11,
        "ATMCount": 6
    },
    {
        "Id": 1320,
        "Title": "CityMall AVM",
        "Phone": "",
        "Address": "",
        "Logo": "https://images.endeksa.com/images/shopping-centers/logos/citymall-avm.jpg",
        "Photo": "https://images.endeksa.com/images/shopping-centers/photos/citymall-avm.jpg",
        "Lat": "41.3373012",
        "Lon": "36.2728223",
        "Country": "Türkiye",
        "City": "Samsun",
        "County": "Atakum",
        "District": "Cumhurıyet",
        "CountryId": 1,
        "CityId": 55,
        "CountyId": 2072,
        "DistrictId": 61790,
        "StoreCount": 30,
        "CategoryCount": 16,
        "ATMCount": 0
    },
    {
        "Id": 1321,
        "Title": "Çarşamba Deltpark AVM",
        "Phone": "0362 833 56 56",
        "Address": "Orta Mh No:48 Çarşamba Samsun",
        "Logo": "https://images.endeksa.com/images/shopping-centers/logos/çarşamba-deltpark-avm.jpg",
        "Photo": "https://images.endeksa.com/images/shopping-centers/photos/çarşamba-deltpark-avm.jpg",
        "Lat": "41.20177",
        "Lon": "36.73013",
        "Country": "Türkiye",
        "City": "Samsun",
        "County": "Çarşamba",
        "District": "Orta",
        "CountryId": 1,
        "CityId": 55,
        "CountyId": 1234,
        "DistrictId": 69929,
        "StoreCount": 9,
        "CategoryCount": 8,
        "ATMCount": 0
    },
    {
        "Id": 1322,
        "Title": "ÇelikPark AVM",
        "Phone": "",
        "Address": "Emir Efendi Mh Samsun Cd Bafra Samsun",
        "Logo": "https://images.endeksa.com/images/shopping-centers/logos/çelikpark-avm.jpg",
        "Photo": "https://images.endeksa.com/images/shopping-centers/photos/çelikpark-avm.jpg",
        "Lat": "41.55699",
        "Lon": "35.90955",
        "Country": "Türkiye",
        "City": "Samsun",
        "County": "Bafra",
        "District": "Emirefendi",
        "CountryId": 1,
        "CityId": 55,
        "CountyId": 1164,
        "DistrictId": 69898,
        "StoreCount": 20,
        "CategoryCount": 12,
        "ATMCount": 0
    },
    {
        "Id": 1323,
        "Title": "Lovelet AVM",
        "Phone": "0362 290 10 10",
        "Address": "Hacı mansur sk Canik Samsun",
        "Logo": "https://images.endeksa.com/images/shopping-centers/logos/lovelet-avm.jpg",
        "Photo": "https://images.endeksa.com/images/shopping-centers/photos/lovelet-avm.jpg",
        "Lat": "41.26480",
        "Lon": "36.37887",
        "Country": "Türkiye",
        "City": "Samsun",
        "County": "Canik",
        "District": "Toptepe",
        "CountryId": 1,
        "CityId": 55,
        "CountyId": 2073,
        "DistrictId": 61801,
        "StoreCount": 27,
        "CategoryCount": 11,
        "ATMCount": 4
    },
    {
        "Id": 1324,
        "Title": "Piazza Samsun AVM",
        "Phone": "0362 290 32 32",
        "Address": "Çarşamba Cd No:52 Canik Samsun",
        "Logo": "https://images.endeksa.com/images/shopping-centers/logos/piazza-samsun-avm.jpg",
        "Photo": "https://images.endeksa.com/images/shopping-centers/photos/piazza-samsun-avm.jpg",
        "Lat": "41.27670",
        "Lon": "36.35351",
        "Country": "Türkiye",
        "City": "Samsun",
        "County": "Canik",
        "District": "Yenimahalle",
        "CountryId": 1,
        "CityId": 55,
        "CountyId": 2073,
        "DistrictId": 61798,
        "StoreCount": 143,
        "CategoryCount": 23,
        "ATMCount": 10
    },
    {
        "Id": 1325,
        "Title": "Yeşilyurt AVM",
        "Phone": "0362 439 25 25",
        "Address": "Atatürk Bulvarı No:154 Atakum Samsun",
        "Logo": "https://images.endeksa.com/images/shopping-centers/logos/yeşilyurt-avm.jpg",
        "Photo": "https://images.endeksa.com/images/shopping-centers/photos/yeşilyurt-avm.jpg",
        "Lat": "41.33071",
        "Lon": "36.29120",
        "Country": "Türkiye",
        "City": "Samsun",
        "County": "Atakum",
        "District": "Denizevleri",
        "CountryId": 1,
        "CityId": 55,
        "CountyId": 2072,
        "DistrictId": 61786,
        "StoreCount": 52,
        "CategoryCount": 18,
        "ATMCount": 5
    },
    {
        "Id": 1326,
        "Title": "AnderaPark AVM",
        "Phone": "0484 224 15 15",
        "Address": "Yeni Mh Cengiz Topel Cd No:69 Siirt",
        "Logo": "https://images.endeksa.com/images/shopping-centers/logos/anderapark-avm.jpg",
        "Photo": "https://images.endeksa.com/images/shopping-centers/photos/anderapark-avm.jpg",
        "Lat": "37.93546",
        "Lon": "41.94498",
        "Country": "Türkiye",
        "City": "Siirt",
        "County": "Merkez",
        "District": "Yeni",
        "CountryId": 1,
        "CityId": 56,
        "CountyId": 1620,
        "DistrictId": 70152,
        "StoreCount": 15,
        "CategoryCount": 11,
        "ATMCount": 3
    },
    {
        "Id": 1327,
        "Title": "PrimeMall Sivas AVM",
        "Phone": "",
        "Address": "Gültepe Mh Farabi Cd Sivas",
        "Logo": "https://images.endeksa.com/images/shopping-centers/logos/primemall-sivas-avm.jpg",
        "Photo": "https://images.endeksa.com/images/shopping-centers/photos/primemall-sivas-avm.jpg",
        "Lat": "39.73005",
        "Lon": "36.99224",
        "Country": "Türkiye",
        "City": "Sivas",
        "County": "Merkez",
        "District": "Gültepe",
        "CountryId": 1,
        "CityId": 58,
        "CountyId": 1628,
        "DistrictId": 70267,
        "StoreCount": 65,
        "CategoryCount": 18,
        "ATMCount": 0
    },
    {
        "Id": 1331,
        "Title": "Orion AVM Çorlu",
        "Phone": "0282 673 33 14",
        "Address": "Şeyh Sinan Mh S.Mehmet paşa cd Çorlu Tekirdağ",
        "Logo": "https://images.endeksa.com/images/shopping-centers/logos/orion-avm-çorlu.jpg",
        "Photo": "https://images.endeksa.com/images/shopping-centers/photos/orion-avm-çorlu.jpg",
        "Lat": "41.15079",
        "Lon": "27.83451",
        "Country": "Türkiye",
        "City": "Tekirdağ",
        "County": "Çorlu",
        "District": "Alipaşa",
        "CountryId": 1,
        "CityId": 59,
        "CountyId": 1258,
        "DistrictId": 70605,
        "StoreCount": 54,
        "CategoryCount": 20,
        "ATMCount": 10
    },
    {
        "Id": 1332,
        "Title": "Tekira AVM",
        "Phone": "0282 260 11 22",
        "Address": "Erdoğdu Mh hükümet Cd Merkez Tekirdağ",
        "Logo": "https://images.endeksa.com/images/shopping-centers/logos/tekira-avm.jpg",
        "Photo": "https://images.endeksa.com/images/shopping-centers/photos/tekira-avm.jpg",
        "Lat": "40.97781",
        "Lon": "27.50401",
        "Country": "Türkiye",
        "City": "Tekirdağ",
        "County": "Süleymanpaşa",
        "District": "Aydoğdu",
        "CountryId": 1,
        "CityId": 59,
        "CountyId": 2096,
        "DistrictId": 70553,
        "StoreCount": 66,
        "CategoryCount": 19,
        "ATMCount": 11
    },
    {
        "Id": 1333,
        "Title": "Trend Arena AVM",
        "Phone": "0282 673 81 21",
        "Address": "Ali Paşa Mh Salih Omurtak Cd No:15 Çorlu Tekirdağ",
        "Logo": "https://images.endeksa.com/images/shopping-centers/logos/trend-arena-avm.jpg",
        "Photo": "https://images.endeksa.com/images/shopping-centers/photos/trend-arena-avm.jpg",
        "Lat": "41.15214",
        "Lon": "27.83120",
        "Country": "Türkiye",
        "City": "Tekirdağ",
        "County": "Çorlu",
        "District": "Alipaşa",
        "CountryId": 1,
        "CityId": 59,
        "CountyId": 1258,
        "DistrictId": 70605,
        "StoreCount": 38,
        "CategoryCount": 17,
        "ATMCount": 4
    },
    {
        "Id": 1334,
        "Title": "Novada Tokat AVM",
        "Phone": "0356 201 01 01",
        "Address": "Vali Zekai Gümüşdiş Bulv Tokat",
        "Logo": "https://images.endeksa.com/images/shopping-centers/logos/novada-tokat-avm.jpg",
        "Photo": "https://images.endeksa.com/images/shopping-centers/photos/novada-tokat-avm.jpg",
        "Lat": "40.33016",
        "Lon": "36.55223",
        "Country": "Türkiye",
        "City": "Tokat",
        "County": "Merkez",
        "District": "Yeşilırmak",
        "CountryId": 1,
        "CityId": 60,
        "CountyId": 1679,
        "DistrictId": 70715,
        "StoreCount": 59,
        "CategoryCount": 17,
        "ATMCount": 12
    },
    {
        "Id": 1335,
        "Title": "Forum Trabzon AVM",
        "Phone": "0462 377 02 00",
        "Address": "Kalkınma Mh Devlet karayolu cd Değirmendere Trabzon",
        "Logo": "https://images.endeksa.com/images/shopping-centers/logos/forum-trabzon-avm.jpg",
        "Photo": "https://images.endeksa.com/images/shopping-centers/photos/forum-trabzon-avm.jpg",
        "Lat": "41.00002",
        "Lon": "39.75983",
        "Country": "Türkiye",
        "City": "Trabzon",
        "County": "Ortahisar",
        "District": "Kalkınma",
        "CountryId": 1,
        "CityId": 61,
        "CountyId": 2097,
        "DistrictId": 71115,
        "StoreCount": 135,
        "CategoryCount": 22,
        "ATMCount": 13
    },
    {
        "Id": 1336,
        "Title": "Trabzon Cevahir /Outlet",
        "Phone": "0462 341 15 63",
        "Address": "Devlet Karayolu Caddesi Trabzon",
        "Logo": "https://images.endeksa.com/images/shopping-centers/logos/trabzon-cevahir--outlet.jpg",
        "Photo": "https://images.endeksa.com/images/shopping-centers/photos/trabzon-cevahir--outlet.jpg",
        "Lat": "40.96768",
        "Lon": "39.83938",
        "Country": "Türkiye",
        "City": "Trabzon",
        "County": "Yomra",
        "District": "Kaşüstü",
        "CountryId": 1,
        "CityId": 61,
        "CountyId": 1732,
        "DistrictId": 157241,
        "StoreCount": 19,
        "CategoryCount": 11,
        "ATMCount": 4
    },
    {
        "Id": 1337,
        "Title": "Varlıbaş AVM",
        "Phone": "0462 223 60 00",
        "Address": "Gülbahar Hatun Mh Atapark Karşısı Trabzon",
        "Logo": "https://images.endeksa.com/images/shopping-centers/logos/varlıbaş-avm.jpg",
        "Photo": "https://images.endeksa.com/images/shopping-centers/photos/varlıbaş-avm.jpg",
        "Lat": "41.00556",
        "Lon": "39.71617",
        "Country": "Türkiye",
        "City": "Trabzon",
        "County": "Ortahisar",
        "District": "Gülbaharhatun",
        "CountryId": 1,
        "CityId": 61,
        "CountyId": 2097,
        "DistrictId": 71111,
        "StoreCount": 27,
        "CategoryCount": 18,
        "ATMCount": 6
    },
    {
        "Id": 1328,
        "Title": "Novada Park AVM",
        "Phone": "0414 502 12 12",
        "Address": "18 Mart Çanakkale Cd Haliliye Şanlıurfa",
        "Logo": "https://images.endeksa.com/images/shopping-centers/logos/novada-park-avm.jpg",
        "Photo": "https://images.endeksa.com/images/shopping-centers/photos/novada-park-avm.jpg",
        "Lat": "37.16381",
        "Lon": "38.79480",
        "Country": "Türkiye",
        "City": "Şanlıurfa",
        "County": "Haliliye",
        "District": "Bamyasuyu",
        "CountryId": 1,
        "CityId": 63,
        "CountyId": 2092,
        "DistrictId": 80263,
        "StoreCount": 21,
        "CategoryCount": 10,
        "ATMCount": 0
    },
    {
        "Id": 1329,
        "Title": "Şanlıurfa Piazza AVM",
        "Phone": "0414 215 2424",
        "Address": "İpekyol Bulvarı 63100 Şanlıurfa",
        "Logo": "https://images.endeksa.com/images/shopping-centers/logos/şanlıurfa-piazza-avm.jpg",
        "Photo": "https://images.endeksa.com/images/shopping-centers/photos/şanlıurfa-piazza-avm.jpg",
        "Lat": "37.15751",
        "Lon": "38.77997",
        "Country": "Türkiye",
        "City": "Şanlıurfa",
        "County": "Eyyübiye",
        "District": "Karakoyunlu",
        "CountryId": 1,
        "CityId": 63,
        "CountyId": 2091,
        "DistrictId": 80272,
        "StoreCount": 85,
        "CategoryCount": 21,
        "ATMCount": 7
    },
    {
        "Id": 1330,
        "Title": "Urfacity AVM",
        "Phone": "0414 316 06 08",
        "Address": "Esentepe mh. Osmangazi cd. Karaköprü/Şanlıurfa",
        "Logo": "https://images.endeksa.com/images/shopping-centers/logos/urfacity-avm.jpg",
        "Photo": "https://images.endeksa.com/images/shopping-centers/photos/urfacity-avm.jpg",
        "Lat": "37.18258",
        "Lon": "38.80756",
        "Country": "Türkiye",
        "City": "Şanlıurfa",
        "County": "Karaköprü",
        "District": "Esentepe",
        "CountryId": 1,
        "CityId": 63,
        "CountyId": 2093,
        "DistrictId": 80245,
        "StoreCount": 25,
        "CategoryCount": 13,
        "ATMCount": 6
    },
    {
        "Id": 1338,
        "Title": "Festiva Uşak AVM /Outlet",
        "Phone": "0276 231 20 14",
        "Address": "Sarayaltı Mh Gazi Blv yanyolu Uşak",
        "Logo": "https://images.endeksa.com/images/shopping-centers/logos/festiva-uşak-avm--outlet.jpg",
        "Photo": "https://images.endeksa.com/images/shopping-centers/photos/festiva-uşak-avm--outlet.jpg",
        "Lat": "38.67745",
        "Lon": "29.44153",
        "Country": "Türkiye",
        "City": "Uşak",
        "County": "Merkez",
        "District": "Sarayaltı",
        "CountryId": 1,
        "CityId": 64,
        "CountyId": 1704,
        "DistrictId": 80474,
        "StoreCount": 28,
        "CategoryCount": 11,
        "ATMCount": 6
    },
    {
        "Id": 1339,
        "Title": "Van AVM",
        "Phone": "0432 222 02 02",
        "Address": "Serhat Mh İpekyolu Van",
        "Logo": "https://images.endeksa.com/images/shopping-centers/logos/van-avm.jpg",
        "Photo": "https://images.endeksa.com/images/shopping-centers/photos/van-avm.jpg",
        "Lat": "38.492826",
        "Lon": "43.393645",
        "Country": "Türkiye",
        "City": "Van",
        "County": "İpekyolu",
        "District": "Serhat",
        "CountryId": 1,
        "CityId": 65,
        "CountyId": 2098,
        "DistrictId": 80565,
        "StoreCount": 74,
        "CategoryCount": 17,
        "ATMCount": 0
    },
    {
        "Id": 1342,
        "Title": "67Burda AVM",
        "Phone": "0372 257 17 67",
        "Address": "İncivez Mh Milli Egemenlik Cd Zonguldak",
        "Logo": "https://images.endeksa.com/images/shopping-centers/logos/67burda-avm.jpg",
        "Photo": "https://images.endeksa.com/images/shopping-centers/photos/67burda-avm.jpg",
        "Lat": "41.45472",
        "Lon": "31.76417",
        "Country": "Türkiye",
        "City": "Zonguldak",
        "County": "Merkez",
        "District": "İncivez",
        "CountryId": 1,
        "CityId": 67,
        "CountyId": 1741,
        "DistrictId": 80940,
        "StoreCount": 54,
        "CategoryCount": 18,
        "ATMCount": 8
    },
    {
        "Id": 1343,
        "Title": "Ereylin AVM",
        "Phone": "0372 316 34 00",
        "Address": "Erdemir Cd No:160 Ereğli Zonguldak ",
        "Logo": "https://images.endeksa.com/images/shopping-centers/logos/ereylin-avm.jpg",
        "Photo": "https://images.endeksa.com/images/shopping-centers/photos/ereylin-avm.jpg",
        "Lat": "41.27199",
        "Lon": "31.43671",
        "Country": "Türkiye",
        "City": "Zonguldak",
        "County": "Ereğli",
        "District": "Müftü",
        "CountryId": 1,
        "CityId": 67,
        "CountyId": 1313,
        "DistrictId": 89863,
        "StoreCount": 21,
        "CategoryCount": 13,
        "ATMCount": 8
    },
    {
        "Id": 1344,
        "Title": "Özdemir Park AVM",
        "Phone": "0372 323 29 00",
        "Address": "Bağlık Mh Erdemir Cd No:93 Kdz. Ereğli Zonguldak",
        "Logo": "https://images.endeksa.com/images/shopping-centers/logos/özdemir-park-avm.jpg",
        "Photo": "https://images.endeksa.com/images/shopping-centers/photos/özdemir-park-avm.jpg",
        "Lat": "41.27567",
        "Lon": "31.43149",
        "Country": "Türkiye",
        "City": "Zonguldak",
        "County": "Ereğli",
        "District": "Bağlık",
        "CountryId": 1,
        "CityId": 67,
        "CountyId": 1313,
        "DistrictId": 89852,
        "StoreCount": 29,
        "CategoryCount": 16,
        "ATMCount": 0
    },
    {
        "Id": 1345,
        "Title": "WestaLife AVM",
        "Phone": "0372 502 01 23",
        "Address": "Mithatpaşa Mh Bülent Ecevit Cd Zonguldak",
        "Logo": "https://images.endeksa.com/images/shopping-centers/logos/westalife-avm.jpg",
        "Photo": "https://images.endeksa.com/images/shopping-centers/photos/westalife-avm.jpg",
        "Lat": "41.45255",
        "Lon": "31.80190",
        "Country": "Türkiye",
        "City": "Zonguldak",
        "County": "Merkez",
        "District": "Mithatpaşa",
        "CountryId": 1,
        "CityId": 67,
        "CountyId": 1741,
        "DistrictId": 80943,
        "StoreCount": 34,
        "CategoryCount": 17,
        "ATMCount": 0
    },
    {
        "Id": 1272,
        "Title": "Park Karaman AVM",
        "Phone": "",
        "Address": "",
        "Logo": "https://images.endeksa.com/images/shopping-centers/logos/park-karaman-avm.jpg",
        "Photo": "https://images.endeksa.com/images/shopping-centers/photos/park-karaman-avm.jpg",
        "Lat": "37.182889",
        "Lon": "33.188861",
        "Country": "Türkiye",
        "City": "Karaman",
        "County": "Merkez",
        "District": "Kurtderesi Köyü",
        "CountryId": 1,
        "CityId": 70,
        "CountyId": 1439,
        "DistrictId": null,
        "StoreCount": 26,
        "CategoryCount": 14,
        "ATMCount": 0
    },
    {
        "Id": 1115,
        "Title": "Batmanpark AVM",
        "Phone": "0488 290 14 00",
        "Address": "Kültür Mh TurgutÖzal Bulv BATMAN",
        "Logo": "https://images.endeksa.com/images/shopping-centers/logos/batmanpark-avm.jpg",
        "Photo": "https://images.endeksa.com/images/shopping-centers/photos/batmanpark-avm.jpg",
        "Lat": "37.90421",
        "Lon": "41.13146",
        "Country": "Türkiye",
        "City": "Batman",
        "County": "Merkez",
        "District": "Kültür",
        "CountryId": 1,
        "CityId": 72,
        "CountyId": 1174,
        "DistrictId": 90475,
        "StoreCount": 35,
        "CategoryCount": 14,
        "ATMCount": 8
    },
    {
        "Id": 1340,
        "Title": "Kipa AVM Yalova",
        "Phone": "0226 814 81 31",
        "Address": "Kazım karabekir mh.Şehit ömer Faydalı cd. no:233 Yalova",
        "Logo": "https://images.endeksa.com/images/shopping-centers/logos/kipa-avm-yalova.jpg",
        "Photo": "https://images.endeksa.com/images/shopping-centers/photos/kipa-avm-yalova.jpg",
        "Lat": "40.65292",
        "Lon": "29.25425",
        "Country": "Türkiye",
        "City": "Yalova",
        "County": "Merkez",
        "District": "Kazım Karabekir",
        "CountryId": 1,
        "CityId": 77,
        "CountyId": 1716,
        "DistrictId": 90804,
        "StoreCount": 16,
        "CategoryCount": 11,
        "ATMCount": 5
    },
    {
        "Id": 1341,
        "Title": "Star AVM",
        "Phone": "0226 800 05 00",
        "Address": "Süleymanbey Mh Cengizkoçal Cd Merkez Yalova ",
        "Logo": "https://images.endeksa.com/images/shopping-centers/logos/star-avm.jpg",
        "Photo": "https://images.endeksa.com/images/shopping-centers/photos/star-avm.jpg",
        "Lat": "40.65870",
        "Lon": "29.27738",
        "Country": "Türkiye",
        "City": "Yalova",
        "County": "Merkez",
        "District": "Süleyman Bey",
        "CountryId": 1,
        "CityId": 77,
        "CountyId": 1716,
        "DistrictId": 90807,
        "StoreCount": 21,
        "CategoryCount": 13,
        "ATMCount": 7
    },
    {
        "Id": 1271,
        "Title": "Kares AVM /Outlet",
        "Phone": "0370 412 60 38",
        "Address": "Albay Karaoğlanoğlu Karabük",
        "Logo": "https://images.endeksa.com/images/shopping-centers/logos/kares-avm--outlet.jpg",
        "Photo": "https://images.endeksa.com/images/shopping-centers/photos/kares-avm--outlet.jpg",
        "Lat": "41.19612",
        "Lon": "32.61750",
        "Country": "Türkiye",
        "City": "Karabük",
        "County": "Merkez",
        "District": "Bayır",
        "CountryId": 1,
        "CityId": 78,
        "CountyId": 1433,
        "DistrictId": 90849,
        "StoreCount": 14,
        "CategoryCount": 10,
        "ATMCount": 2
    },
    {
        "Id": 1313,
        "Title": "Park 328 AVM",
        "Phone": "0328 790 10 15",
        "Address": "ŞairAbay Kumanbay Cd Adnan Menderes Bulv Osmaniye",
        "Logo": "https://images.endeksa.com/images/shopping-centers/logos/park-328-avm.jpg",
        "Photo": "https://images.endeksa.com/images/shopping-centers/photos/park-328-avm.jpg",
        "Lat": "37.08392",
        "Lon": "36.24524",
        "Country": "Türkiye",
        "City": "Osmaniye",
        "County": "Merkez",
        "District": "Rahime Hatun",
        "CountryId": 1,
        "CityId": 80,
        "CountyId": 1560,
        "DistrictId": 91046,
        "StoreCount": 49,
        "CategoryCount": 18,
        "ATMCount": 8
    },
    {
        "Id": 1140,
        "Title": "Krempark AVM",
        "Phone": "",
        "Address": "",
        "Logo": "https://images.endeksa.com/images/shopping-centers/logos/krempark-avm.jpg",
        "Photo": "https://images.endeksa.com/images/shopping-centers/photos/krempark-avm.jpg",
        "Lat": "40.840679",
        "Lon": "31.1504433",
        "Country": "Türkiye",
        "City": "Düzce",
        "County": "Merkez",
        "District": "Kültür",
        "CountryId": 1,
        "CityId": 81,
        "CountyId": 1292,
        "DistrictId": 91176,
        "StoreCount": 32,
        "CategoryCount": 13,
        "ATMCount": 0
    }
]